city,city_ascii,lat,lng,country,iso2,iso3,admin_name,capital,population,id
Delhi,Delhi,28.61,77.23,India,IN,IND,Delhi,admin,32226000,1356872604
Mumbai,Mumbai,19.0761,72.8775,India,IN,IND,MahÄrÄshtra,admin,24973000,1356226629
KolkÄta,Kolkata,22.5675,88.37,India,IN,IND,West Bengal,admin,18502000,1356060520
Bangalore,Bangalore,12.9789,77.5917,India,IN,IND,KarnÄtaka,admin,15386000,1356410365
Chennai,Chennai,13.0825,80.275,India,IN,IND,Tamil NÄdu,admin,12395000,1356374944
HyderÄbÄd,Hyderabad,17.3617,78.4747,India,IN,IND,TelangÄna,admin,10494000,1356871768
Pune,Pune,18.5203,73.8567,India,IN,IND,MahÄrÄshtra,,8231000,1356081074
Ahmedabad,Ahmedabad,23.0225,72.5714,India,IN,IND,GujarÄt,minor,8009000,1356304381
SÅ«rat,Surat,21.1702,72.8311,India,IN,IND,GujarÄt,,6538000,1356758738
Lucknow,Lucknow,26.85,80.95,India,IN,IND,Uttar Pradesh,admin,3382000,1356891790
Jaipur,Jaipur,26.9,75.8,India,IN,IND,RÄjasthÄn,admin,3073350,1356293537
Kanpur,Kanpur,26.4499,80.3319,India,IN,IND,Uttar Pradesh,,2701324,1356575238
MirzÄpur,Mirzapur,25.146,82.569,India,IN,IND,Uttar Pradesh,,2496970,1356427908
NÄgpur,Nagpur,21.1497,79.0806,India,IN,IND,MahÄrÄshtra,,2405665,1356365743
GhÄziÄbÄd,Ghaziabad,28.67,77.42,India,IN,IND,Uttar Pradesh,,2375820,1356691871
Supaul,Supaul,26.126,86.605,India,IN,IND,BihÄr,,2229076,1356015995
Vadodara,Vadodara,22.3,73.2,India,IN,IND,GujarÄt,,2065771,1356705249
RÄjkot,Rajkot,22.3,70.7833,India,IN,IND,GujarÄt,,2043000,1356317190
VishÄkhapatnam,Vishakhapatnam,17.7042,83.2978,India,IN,IND,Andhra Pradesh,,2035922,1356692563
Indore,Indore,22.7167,75.8472,India,IN,IND,Madhya Pradesh,,1994397,1356402812
ThÄne,Thane,19.1972,72.9722,India,IN,IND,MahÄrÄshtra,,1886941,1356681152
BhopÄl,Bhopal,23.2599,77.4126,India,IN,IND,Madhya Pradesh,admin,1798218,1356734039
Pimpri-Chinchwad,Pimpri-Chinchwad,18.6186,73.8037,India,IN,IND,MahÄrÄshtra,,1727692,1356475483
Patna,Patna,25.594,85.1376,India,IN,IND,BihÄr,admin,1684222,1356821429
BilÄspur,Bilaspur,22.09,82.15,India,IN,IND,ChhattÄ«sgarh,,1625502,1356820491
LudhiÄna,Ludhiana,30.91,75.85,India,IN,IND,Punjab,,1618879,1356929498
Ä€gra,Agra,27.18,78.02,India,IN,IND,Uttar Pradesh,,1585704,1356187395
Madurai,Madurai,9.9252,78.1198,India,IN,IND,Tamil NÄdu,minor,1561129,1356257289
Jamshedpur,Jamshedpur,22.7925,86.1842,India,IN,IND,JhÄrkhand,,1558000,1356501259
Prayagraj,Prayagraj,25.4358,81.8464,India,IN,IND,Uttar Pradesh,,1536218,1356718332
NÄsik,Nasik,19.9975,73.7898,India,IN,IND,MahÄrÄshtra,,1486053,1356562598
FarÄ«dÄbÄd,Faridabad,28.4211,77.3078,India,IN,IND,HaryÄna,,1414050,1356013205
Meerut,Meerut,28.98,77.71,India,IN,IND,Uttar Pradesh,,1305429,1356390476
Jabalpur,Jabalpur,23.1667,79.9333,India,IN,IND,Madhya Pradesh,,1267564,1356115460
KalyÄn,Kalyan,19.2502,73.1602,India,IN,IND,MahÄrÄshtra,,1246381,1356172246
Vasai-Virar,Vasai-Virar,19.3607,72.7956,India,IN,IND,MahÄrÄshtra,,1221233,1356707797
Najafgarh,Najafgarh,28.6092,76.9798,India,IN,IND,Delhi,,1203180,1356180206
VÄrÄnasi,Varanasi,25.3189,83.0128,India,IN,IND,Uttar Pradesh,,1198491,1356145782
SrÄ«nagar,Srinagar,34.09,74.79,India,IN,IND,Jammu and KashmÄ«r,admin,1180570,1356442950
AurangÄbÄd,Aurangabad,19.88,75.32,India,IN,IND,MahÄrÄshtra,,1175116,1356840670
DhanbÄd,Dhanbad,23.7998,86.4305,India,IN,IND,JhÄrkhand,,1162472,1356103392
Amritsar,Amritsar,31.64,74.86,India,IN,IND,Punjab,,1132383,1356926507
AlÄ«garh,Aligarh,27.88,78.08,India,IN,IND,Uttar Pradesh,,1131160,1356076391
GuwÄhÄti,Guwahati,26.1722,91.7458,India,IN,IND,Assam,,1116267,1356593800
HÄora,Haora,22.58,88.3294,India,IN,IND,West Bengal,,1077075,1356986516
RÄnchi,Ranchi,23.36,85.33,India,IN,IND,JhÄrkhand,admin,1073440,1356110588
Gwalior,Gwalior,26.2124,78.1772,India,IN,IND,Madhya Pradesh,,1069276,1356363967
ChandÄ«garh,Chandigarh,30.75,76.78,India,IN,IND,ChandÄ«garh,admin,1055450,1356739179
HaldwÄni,Haldwani,29.22,79.52,India,IN,IND,UttarÄkhand,,1050000,1356040854
VijayavÄda,Vijayawada,16.5193,80.6305,India,IN,IND,Andhra Pradesh,,1048240,1356807575
Jodhpur,Jodhpur,26.28,73.02,India,IN,IND,RÄjasthÄn,,1033918,1356727084
Raipur,Raipur,21.2444,81.6306,India,IN,IND,ChhattÄ«sgarh,admin,1010087,1356374983
Kota,Kota,25.18,75.83,India,IN,IND,RÄjasthÄn,,1001694,1356820310
Bareilly,Bareilly,28.364,79.415,India,IN,IND,Uttar Pradesh,,1000000,1356698199
Coimbatore,Coimbatore,11.0167,76.9556,India,IN,IND,Tamil NÄdu,,959823,1356999503
SolÄpur,Solapur,17.68,75.92,India,IN,IND,MahÄrÄshtra,,951558,1356314385
Hubli,Hubli,15.3502,75.1376,India,IN,IND,KarnÄtaka,,943788,1356422270
Trichinopoly,Trichinopoly,10.7903,78.7047,India,IN,IND,Tamil NÄdu,,916857,1356884472
MorÄdÄbÄd,Moradabad,28.8319,78.7764,India,IN,IND,Uttar Pradesh,,889810,1356269375
TiruppÅ«r,Tiruppur,11.1085,77.3411,India,IN,IND,Tamil NÄdu,,877778,1356539761
Gurgaon,Gurgaon,28.456,77.029,India,IN,IND,HaryÄna,,876824,1356836043
Jalandhar,Jalandhar,31.2569,75.4432,India,IN,IND,Punjab,,873725,1356494816
Bhubaneshwar,Bhubaneshwar,20.2644,85.8281,India,IN,IND,Odisha,admin,837737,1356140143
Bhayandar,Bhayandar,19.29,72.85,India,IN,IND,MahÄrÄshtra,,809378,1356019118
PatiÄla,Patiala,30.34,76.38,India,IN,IND,Punjab,,763280,1356458416
ShÄ«shgarh,Shishgarh,28.72,79.32,India,IN,IND,Uttar Pradesh,,753815,1356494610
Thiruvananthapuram,Thiruvananthapuram,8.5241,76.9366,India,IN,IND,Kerala,admin,743691,1356024354
Bhiwandi,Bhiwandi,19.2967,73.0631,India,IN,IND,MahÄrÄshtra,,709665,1356763571
SahÄranpur,Saharanpur,29.964,77.546,India,IN,IND,Uttar Pradesh,,705478,1356139858
Warangal,Warangal,17.9689,79.5941,India,IN,IND,TelangÄna,,704570,1356851618
Shiliguri,Shiliguri,26.71,88.43,India,IN,IND,West Bengal,,701489,1356724691
Salem,Salem,11.65,78.15,India,IN,IND,Tamil NÄdu,,693236,1356567087
Kochi,Kochi,9.9312,76.2673,India,IN,IND,Kerala,,677381,1356707865
DhÅ«lia,Dhulia,20.8997,74.7697,India,IN,IND,MahÄrÄshtra,,675000,1356224695
Gorakhpur,Gorakhpur,26.7637,83.4039,India,IN,IND,Uttar Pradesh,,673446,1356190221
GuntÅ«r,Guntur,16.3008,80.4428,India,IN,IND,Andhra Pradesh,,670073,1356374905
BhÄngar,Bhangar,22.58,88.42,India,IN,IND,West Bengal,,670000,1356177796
Narela,Narela,28.8527,77.0929,India,IN,IND,Delhi,,661994,1356542019
Karaikandi,Karaikandi,24.8309,92.6143,India,IN,IND,Assam,,659260,1356669973
BhÄvnagar,Bhavnagar,21.76,72.15,India,IN,IND,GujarÄt,,643365,1356982375
Noida,Noida,28.57,77.32,India,IN,IND,Uttar Pradesh,,637272,1356002491
Bhilai,Bhilai,21.21,81.38,India,IN,IND,ChhattÄ«sgarh,,624700,1356098574
Mangalore,Mangalore,12.8681,74.8425,India,IN,IND,KarnÄtaka,,623841,1356972351
BihtÄ,Bihta,25.5619,84.87,India,IN,IND,BihÄr,,617427,1356234338
Cuttack,Cuttack,20.5236,85.7881,India,IN,IND,Odisha,,606007,1356872061
SalÄ«mpur,Salimpur,26.3,83.9167,India,IN,IND,Uttar Pradesh,,604483,1356110964
Raurkela,Raurkela,22.2492,84.8828,India,IN,IND,Odisha,,600000,1356096816
TumkÅ«r,Tumkur,13.34,77.1,India,IN,IND,KarnÄtaka,,599078,1356033724
TenkÄsi,Tenkasi,8.9564,77.3152,India,IN,IND,Tamil NÄdu,,580000,1356465590
Dehra DÅ«n,Dehra Dun,30.345,78.029,India,IN,IND,UttarÄkhand,admin,578420,1356970407
Kottayam,Kottayam,9.5916,76.5222,India,IN,IND,Kerala,,571856,1356307269
DurgÄpur,Durgapur,23.55,87.32,India,IN,IND,West Bengal,,566937,1356045686
Ä€sansol,Asansol,23.68,86.99,India,IN,IND,West Bengal,,563917,1356093694
Bokaro Steel City,Bokaro Steel City,23.67,86.15,India,IN,IND,JhÄrkhand,,563417,1356201241
KolhÄpur,Kolhapur,16.6917,74.2333,India,IN,IND,MahÄrÄshtra,,561489,1356110593
Nava Raipur,Nava Raipur,21.161,81.787,India,IN,IND,ChhattÄ«sgarh,,560000,1356090025
Ajmer,Ajmer,26.4499,74.6399,India,IN,IND,RÄjasthÄn,,551101,1356058258
NÄnded,Nanded,19.15,77.3,India,IN,IND,MahÄrÄshtra,,550439,1356722310
AmrÄvati,Amravati,20.9258,77.7647,India,IN,IND,MahÄrÄshtra,,549370,1356462099
Nellore,Nellore,14.45,79.99,India,IN,IND,Andhra Pradesh,,547621,1356280972
Dispur,Dispur,26.1397,91.7925,India,IN,IND,Assam,admin,534872,1356960169
Gulbarga,Gulbarga,17.329,76.825,India,IN,IND,KarnÄtaka,,533587,1356091187
BÄ«kaner,Bikaner,28.0181,73.3169,India,IN,IND,RÄjasthÄn,,529007,1356026593
NÄgercoil,Nagercoil,8.175,77.4306,India,IN,IND,Tamil NÄdu,,522759,1356051733
Agartala,Agartala,23.8314,91.2869,India,IN,IND,Tripura,admin,522613,1356148992
Loni,Loni,28.75,77.28,India,IN,IND,Uttar Pradesh,,516082,1356528413
Ujjain,Ujjain,23.17,75.79,India,IN,IND,Madhya Pradesh,,515215,1356050735
BhÄ«lwÄra,Bhilwara,25.35,74.63,India,IN,IND,RÄjasthÄn,,509483,1356077831
JhÄnsi,Jhansi,25.4486,78.5696,India,IN,IND,Uttar Pradesh,,507000,1356712664
UlhÄsnagar,Ulhasnagar,19.22,73.15,India,IN,IND,MahÄrÄshtra,,506098,1356375341
Vellore,Vellore,12.9165,79.1325,India,IN,IND,Tamil NÄdu,,504079,1356977661
Jammu,Jammu,32.73,74.87,India,IN,IND,Jammu and KashmÄ«r,admin,502197,1356491738
Purnea,Purnea,25.778,87.476,India,IN,IND,BihÄr,,496830,1356486511
Belgaum,Belgaum,15.85,74.5,India,IN,IND,KarnÄtaka,,488157,1356390535
MÄlegaon,Malegaon,20.55,74.55,India,IN,IND,MahÄrÄshtra,,481228,1356113556
JÄmnagar,Jamnagar,22.47,70.07,India,IN,IND,GujarÄt,,479920,1356104995
BÄrdoli,Bardoli,21.12,73.12,India,IN,IND,GujarÄt,,475963,1356054525
Gaya,Gaya,24.75,85.01,India,IN,IND,BihÄr,,474093,1356045727
AmbattÅ«r,Ambattur,13.1143,80.1548,India,IN,IND,Tamil NÄdu,,466205,1356685959
Jalgaon,Jalgaon,21.004,75.568,India,IN,IND,MahÄrÄshtra,,460468,1356734842
Chhatarpur,Chhatarpur,24.55,79.3527,India,IN,IND,Madhya Pradesh,,459943,1356776353
Kurnool,Kurnool,15.83,78.05,India,IN,IND,Andhra Pradesh,,457633,1356058372
Udaipur,Udaipur,24.58,73.68,India,IN,IND,RÄjasthÄn,,451100,1356266094
Mathura,Mathura,27.4924,77.6737,India,IN,IND,Uttar Pradesh,,441894,1356066081
SÄngli,Sangli,16.853,74.583,India,IN,IND,MahÄrÄshtra,,436639,1356921375
Davangere,Davangere,14.4666,75.9242,India,IN,IND,KarnÄtaka,,435125,1356445061
Calicut,Calicut,11.2588,75.7804,India,IN,IND,Kerala,minor,431560,1356010401
BÄrÄmati,Baramati,18.15,74.58,India,IN,IND,MahÄrÄshtra,,429600,1356106444
MothÄ«hÄri,Mothihari,26.65,84.9167,India,IN,IND,BihÄr,,426158,1356540032
Akola,Akola,20.7,77,India,IN,IND,MahÄrÄshtra,,425817,1356089496
Bettiah,Bettiah,26.8014,84.5028,India,IN,IND,BihÄr,,414453,1356590604
ShorÄpur,Shorapur,16.52,76.76,India,IN,IND,KarnÄtaka,,412291,1356512373
Tinnevelly,Tinnevelly,8.7136,77.7567,India,IN,IND,Tamil NÄdu,,411298,1356037155
Bellary,Bellary,15.1,76.9167,India,IN,IND,KarnÄtaka,,410445,1356209152
BhÄgalpur,Bhagalpur,25.25,87,India,IN,IND,BihÄr,,410210,1356760990
PadiÄla,Padiala,30.802,76.593,India,IN,IND,Punjab,,406192,1356667176
Delhi Cantonment,Delhi Cantonment,28.6,77.1333,India,IN,IND,Delhi,,405633,1356526853
Salt Lake City,Salt Lake City,22.61,88.4,India,IN,IND,West Bengal,,403316,1356720205
EtÄwa,Etawa,24.18,78.2,India,IN,IND,Madhya Pradesh,,402678,1356950925
SonÄ«pat,Sonipat,28.99,77.022,India,IN,IND,HaryÄna,,402000,1356648808
Quilon,Quilon,8.8932,76.6141,India,IN,IND,Kerala,,397419,1356304110
Mulangodi,Mulangodi,9,76.6167,India,IN,IND,Kerala,,397419,1356160605
Munro Turuttu,Munro Turuttu,9,76.6167,India,IN,IND,Kerala,,397419,1356163281
Bairia,Bairia,25.7583,84.1489,India,IN,IND,Uttar Pradesh,,386745,1356189784
BhÄtpÄra,Bhatpara,22.87,88.41,India,IN,IND,West Bengal,,386019,1356022456
KÅ«katpalli,Kukatpalli,17.4849,78.4138,India,IN,IND,TelangÄna,,385821,1356553747
SirÅ«r,Sirur,18.83,74.38,India,IN,IND,MahÄrÄshtra,,385414,1356926718
KÄkinÄda,Kakinada,16.9661,82.255,India,IN,IND,Andhra Pradesh,,384182,1356573609
PÄnihÄti,Panihati,22.69,88.37,India,IN,IND,West Bengal,,377347,1356118632
Rohtak,Rohtak,28.8909,76.5796,India,IN,IND,HaryÄna,,374292,1356162915
MÄler Kotla,Maler Kotla,30.5167,75.8833,India,IN,IND,Punjab,,374000,1356847218
Kolga,Kolga,22.35,82.68,India,IN,IND,ChhattÄ«sgarh,,365253,1356470898
Korba,Korba,22.3458,82.6963,India,IN,IND,ChhattÄ«sgarh,,365253,1356093877
SÄ«kar,Sikar,27.62,75.15,India,IN,IND,RÄjasthÄn,,359293,1356163729
KarÅ«r,Karur,10.9601,78.0766,India,IN,IND,Tamil NÄdu,,358468,1356837900
SasarÄm,Sasaram,24.95,84.03,India,IN,IND,BihÄr,,358283,1356061200
KarnÄl,Karnal,29.686,76.989,India,IN,IND,HaryÄna,,357334,1356145204
Brahmapur,Brahmapur,19.315,84.7941,India,IN,IND,Odisha,,355823,1356569354
ChÄnda,Chanda,19.95,79.3,India,IN,IND,MahÄrÄshtra,,355739,1356592607
Ahmadnagar,Ahmadnagar,19.08,74.73,India,IN,IND,MahÄrÄshtra,,350859,1356972679
DÄsarhalli,Dasarhalli,13.0465,77.513,India,IN,IND,KarnÄtaka,,349720,1356103194
ShÄhjÄnpur,Shahjanpur,27.88,79.91,India,IN,IND,Uttar Pradesh,,346103,1356415439
AlamÄdi,Alamadi,13.1097,80.0972,India,IN,IND,Tamil NÄdu,,345996,1356716431
Ä€vadi,Avadi,13.1147,80.1098,India,IN,IND,Tamil NÄdu,,345996,1356009111
KhÄnÄpur,Khanapur,15.6394,74.5083,India,IN,IND,KarnÄtaka,,345839,1356772159
HosÅ«r,Hosur,12.7409,77.8253,India,IN,IND,Tamil NÄdu,,345000,1356829362
Cuddapah,Cuddapah,14.47,78.82,India,IN,IND,Andhra Pradesh,,344893,1356360140
RÄjahmundry,Rajahmundry,16.98,81.78,India,IN,IND,Andhra Pradesh,,341831,1356831716
Alwar,Alwar,27.5498,76.6355,India,IN,IND,RÄjasthÄn,,341422,1356570855
Sambalpur,Sambalpur,21.47,83.97,India,IN,IND,Odisha,,335761,1356772339
Muzaffarpur,Muzaffarpur,26.1225,85.3906,India,IN,IND,BihÄr,,333200,1356897425
KÄmÄrhÄti,Kamarhati,22.6686,88.3704,India,IN,IND,West Bengal,,330211,1356676559
CampÄ«ernagar,Campiernagar,27.029,83.2668,India,IN,IND,Uttar Pradesh,,329104,1356103973
BijÄpur,Bijapur,16.83,75.71,India,IN,IND,KarnÄtaka,,327427,1356499139
TharÄd,Tharad,24.3926,71.6248,India,IN,IND,GujarÄt,,327289,1356055796
RatnÄgiri,Ratnagiri,16.9944,73.3,India,IN,IND,MahÄrÄshtra,,327120,1356990175
RÄmpur,Rampur,28.8,79,India,IN,IND,Uttar Pradesh,,325248,1356666569
Shimoga,Shimoga,13.9333,75.5667,India,IN,IND,KarnÄtaka,,322650,1356016156
KÄshÄ«pur,Kashipur,29.22,78.95,India,IN,IND,UttarÄkhand,,321623,1356044207
JÅ«nÄgadh,Junagadh,21.5222,70.4579,India,IN,IND,GujarÄt,,320250,1356057451
HÄpur,Hapur,28.7309,77.7757,India,IN,IND,Uttar Pradesh,,317004,1356820012
TrichÅ«r,Trichur,10.5276,76.2144,India,IN,IND,Kerala,,315596,1356589298
BarddhamÄn,Barddhaman,23.2333,87.8667,India,IN,IND,West Bengal,,314265,1356062166
Panvel,Panvel,18.9944,73.1139,India,IN,IND,MahÄrÄshtra,,311434,1356424574
NizÄmÄbÄd,Nizamabad,18.672,78.094,India,IN,IND,TelangÄna,,311152,1356242168
Parbhani,Parbhani,19.27,76.78,India,IN,IND,MahÄrÄshtra,,307170,1356632842
Hisar,Hisar,29.15,75.7,India,IN,IND,HaryÄna,,307024,1356004790
Fatehpur,Fatehpur,27.98,74.95,India,IN,IND,RÄjasthÄn,,305638,1356931375
Oulgaret,Oulgaret,11.957,79.7737,India,IN,IND,Tamil NÄdu,,300104,1356242623
IngrÄj BÄzÄr,Ingraj Bazar,25.0119,88.1433,India,IN,IND,West Bengal,,300088,1356142829
Bada BarabÄ«l,Bada Barabil,22.12,85.4,India,IN,IND,Odisha,,300000,1356293872
Dod BallÄpur,Dod Ballapur,13.292,77.543,India,IN,IND,KarnÄtaka,,299594,1356716579
BihÄr,Bihar,25.197,85.518,India,IN,IND,BihÄr,,297268,1356002333
Darbhanga,Darbhanga,26.17,85.9,India,IN,IND,BihÄr,,296039,1356846195
SikandarÄbÄd,Sikandarabad,28.4512,77.6955,India,IN,IND,Uttar Pradesh,,294858,1356989226
PÄnÄ«pat,Panipat,29.3875,76.97,India,IN,IND,HaryÄna,,294292,1356526780
Ä€Ä«zawl,Aizawl,23.7272,92.7178,India,IN,IND,Mizoram,admin,293416,1356342768
BÄli,Bali,22.65,88.34,India,IN,IND,West Bengal,,293373,1356113138
Palni,Palni,10.45,77.5161,India,IN,IND,Tamil NÄdu,,292301,1356384365
Surajgarha,Surajgarha,25.25,86.23,India,IN,IND,BihÄr,,290998,1356762117
KarÄ«mnagar,Karimnagar,18.4386,79.1288,India,IN,IND,TelangÄna,,289821,1356578937
DewÄs,Dewas,22.96,76.06,India,IN,IND,Madhya Pradesh,,289550,1356065731
Hugli,Hugli,22.9,88.39,India,IN,IND,West Bengal,,288506,1356109548
Chunchura,Chunchura,22.9,88.39,India,IN,IND,West Bengal,,288506,1356979106
Sonpur,Sonpur,25.7,85.18,India,IN,IND,BihÄr,,288102,1356149014
Ichalkaranji,Ichalkaranji,16.7,74.47,India,IN,IND,MahÄrÄshtra,,287570,1356651502
Tirupati,Tirupati,13.65,79.42,India,IN,IND,Andhra Pradesh,,287482,1356362995
Bhatinda,Bhatinda,30.23,74.9519,India,IN,IND,Punjab,,285813,1356343054
JÄlna,Jalna,19.8333,75.8833,India,IN,IND,MahÄrÄshtra,,285577,1356730545
Satna,Satna,24.6005,80.8322,India,IN,IND,Madhya Pradesh,,283004,1356008295
Sannai,Sannai,24.1582,80.751,India,IN,IND,Madhya Pradesh,,283004,1356009968
Mau,Mau,25.9417,83.5611,India,IN,IND,Uttar Pradesh,,278745,1356238859
BÄrÄsat,Barasat,22.72,88.48,India,IN,IND,West Bengal,,278435,1356644721
FarrukhÄbÄd,Farrukhabad,27.39,79.581,India,IN,IND,Uttar Pradesh,,275754,1356776384
Saugor,Saugor,23.83,78.71,India,IN,IND,Madhya Pradesh,,274556,1356781800
RatlÄm,Ratlam,23.334,75.037,India,IN,IND,Madhya Pradesh,,273892,1356241663
Chopda,Chopda,21.25,75.3,India,IN,IND,MahÄrÄshtra,,271863,1356848092
HandwÄra,Handwara,34.3997,74.2817,India,IN,IND,Jammu and KashmÄ«r,,269311,1356080179
Drug,Drug,21.19,81.28,India,IN,IND,ChhattÄ«sgarh,,268806,1356910418
Anantapur,Anantapur,14.68,77.599,India,IN,IND,Andhra Pradesh,,267161,1356296545
ImphÄl,Imphal,24.8074,93.9384,India,IN,IND,Manipur,admin,264986,1356107172
Jagdalpur,Jagdalpur,19.18,81.92,India,IN,IND,ChhattÄ«sgarh,,263000,1356443381
Arrah,Arrah,25.5514,84.6603,India,IN,IND,BihÄr,,261430,1356085605
EtÄwah,Etawah,26.77,79.03,India,IN,IND,Uttar Pradesh,,256838,1356241312
MalkÄjgiri,Malkajgiri,17.4519,78.5362,India,IN,IND,TelangÄna,,255899,1356092535
Tuni,Tuni,17.35,82.55,India,IN,IND,Andhra Pradesh,,254425,1356073049
RÄpar,Rapar,23.57,70.63,India,IN,IND,GujarÄt,,253137,1356119017
SamÄstipur,Samastipur,25.8629,85.7811,India,IN,IND,BihÄr,,253136,1356801161
Bharatpur,Bharatpur,27.22,77.48,India,IN,IND,RÄjasthÄn,,252342,1356168278
Begusarai,Begusarai,25.42,86.13,India,IN,IND,BihÄr,,252008,1356619346
JÅ«nÄgarh,Junagarh,19.8599,82.9338,India,IN,IND,Odisha,,251842,1356057455
Nedumana,Nedumana,8.9139,76.6889,India,IN,IND,Kerala,,251384,1356161987
New Delhi,New Delhi,28.6139,77.2089,India,IN,IND,Delhi,primary,249998,1356215164
TiruvottiyÅ«r,Tiruvottiyur,13.16,80.3,India,IN,IND,Tamil NÄdu,,249446,1356964110
RÄmnagar,Ramnagar,27.17,84.32,India,IN,IND,BihÄr,,249102,1356673115
GÄndhÄ«dhÄm,Gandhidham,23.08,70.13,India,IN,IND,GujarÄt,,248705,1356140913
SalÅ«mbar,Salumbar,24.08,74.02,India,IN,IND,RÄjasthÄn,,248337,1356580244
KrishnarÄjpur,Krishnarajpur,13.012,77.6951,India,IN,IND,KarnÄtaka,,245797,1356007149
Nelamangala,Nelamangala,13.102,77.374,India,IN,IND,KarnÄtaka,,245624,1356943451
Puducherry,Puducherry,11.9167,79.8167,India,IN,IND,Puducherry,admin,244377,1356368903
RÄmgundam,Ramgundam,18.7639,79.475,India,IN,IND,TelangÄna,,242979,1356590864
PÄlanpur,Palanpur,24.1722,72.4333,India,IN,IND,GujarÄt,,242936,1356412186
Pandharpur,Pandharpur,17.6778,75.3278,India,IN,IND,MahÄrÄshtra,,242515,1356852072
Masaurhi Buzurg,Masaurhi Buzurg,25.35,85.02,India,IN,IND,BihÄr,,241216,1356191575
KatihÄr,Katihar,25.53,87.58,India,IN,IND,BihÄr,,240565,1356099841
Byatarayanpur,Byatarayanpur,13.0659,77.5922,India,IN,IND,KarnÄtaka,,239902,1356590852
Ahor,Ahor,25.367,72.783,India,IN,IND,RÄjasthÄn,,239642,1356319779
Tuticorin,Tuticorin,8.7642,78.1348,India,IN,IND,Tamil NÄdu,,237830,1356751023
GangÄnagar,Ganganagar,29.92,73.88,India,IN,IND,RÄjasthÄn,,237780,1356431302
Tinkhang,Tinkhang,27.23,95.17,India,IN,IND,Assam,,236571,1356170627
Rewa,Rewa,24.53,81.3,India,IN,IND,Madhya Pradesh,,236519,1356642255
Uluberiya,Uluberiya,22.47,88.11,India,IN,IND,West Bengal,,235345,1356354610
Bulandshahr,Bulandshahr,28.4069,77.8497,India,IN,IND,Uttar Pradesh,,235310,1356067648
Chauhanpatti,Chauhanpatti,25.15,82.6,India,IN,IND,Uttar Pradesh,,233691,1356457777
Cannanore,Cannanore,11.8745,75.3704,India,IN,IND,Kerala,,232486,1356147157
RÄichÅ«r,Raichur,16.2,77.37,India,IN,IND,KarnÄtaka,,232456,1356217280
MachilÄ«patnam,Machilipatnam,16.17,81.13,India,IN,IND,Andhra Pradesh,,232000,1356067784
PÄli,Pali,25.77,73.33,India,IN,IND,RÄjasthÄn,,229956,1356212172
Songadh,Songadh,21.167,73.564,India,IN,IND,GujarÄt,,229782,1356550633
Gadda Madiral,Gadda Madiral,18.7519,79.5133,India,IN,IND,TelangÄna,,229644,1356055274
MiriÄlgÅ«da,Mirialguda,16.8667,79.5833,India,IN,IND,TelangÄna,,228891,1356570698
HaridwÄr,Haridwar,29.945,78.163,India,IN,IND,UttarÄkhand,,228832,1356090741
Vizianagaram,Vizianagaram,18.1159,83.406,India,IN,IND,Andhra Pradesh,,228720,1356212761
RÄisinghnagar,Raisinghnagar,29.5342,73.4477,India,IN,IND,RÄjasthÄn,,228330,1356007573
PÄthardi,Pathardi,19.17,75.18,India,IN,IND,MahÄrÄshtra,,228279,1356126088
Mel PÄlaiyam,Mel Palaiyam,8.7,77.7069,India,IN,IND,Tamil NÄdu,,227895,1356249420
KhatÄ«ma,Khatima,28.92,79.97,India,IN,IND,UttarÄkhand,,227226,1356442679
PetlÄd,Petlad,22.47,72.8,India,IN,IND,GujarÄt,,227031,1356943594
NadiÄd,Nadiad,22.69,72.86,India,IN,IND,GujarÄt,,225132,1356992385
Tanjore,Tanjore,10.787,79.1378,India,IN,IND,Tamil NÄdu,,222943,1356599194
Kichha,Kichha,28.92,79.5,India,IN,IND,UttarÄkhand,,221965,1356016973
Katri,Katri,23.48,80.4,India,IN,IND,Madhya Pradesh,,221875,1356636912
Dagarua,Dagarua,25.8,87.64,India,IN,IND,BihÄr,,221229,1356757539
Sambhal,Sambhal,28.58,78.55,India,IN,IND,Uttar Pradesh,,220813,1356376216
Singrauliya,Singrauliya,24.202,82.666,India,IN,IND,Madhya Pradesh,,220257,1356985698
NaihÄti,Naihati,22.89,88.42,India,IN,IND,West Bengal,,217900,1356715598
Porbandar,Porbandar,21.6417,69.6293,India,IN,IND,GujarÄt,,217500,1356634492
YamunÄnagar,Yamunanagar,30.133,77.288,India,IN,IND,HaryÄna,,216628,1356846120
PallÄvaram,Pallavaram,12.9675,80.1491,India,IN,IND,Tamil NÄdu,,215417,1356057661
Khargone,Khargone,21.82,75.6187,India,IN,IND,Madhya Pradesh,,215000,1356728712
SecunderÄbÄd,Secunderabad,17.4399,78.4983,India,IN,IND,TelangÄna,,213698,1356779437
Bhuj,Bhuj,23.25,69.67,India,IN,IND,GujarÄt,,213514,1356806356
Monghyr,Monghyr,25.381,86.465,India,IN,IND,BihÄr,,213101,1356280102
ChÄpra,Chapra,25.7848,84.7274,India,IN,IND,BihÄr,,212955,1356147120
BhadrÄvati,Bhadravati,13.8485,75.705,India,IN,IND,KarnÄtaka,,212073,1356466241
Panchkula,Panchkula,30.74,76.8,India,IN,IND,HaryÄna,minor,211355,1356152025
BurhÄnpur,Burhanpur,21.3114,76.2289,India,IN,IND,Madhya Pradesh,,210891,1356857493
KirÄtot,Kiratot,32.8376,76.2296,India,IN,IND,HimÄchal Pradesh,,210406,1356118618
KÄpra,Kapra,17.4859,78.5651,India,IN,IND,TelangÄna,,209882,1356304297
AmbÄla,Ambala,30.38,76.78,India,IN,IND,HaryÄna,,207934,1356947216
Kharagpur,Kharagpur,22.3302,87.3237,India,IN,IND,West Bengal,,207604,1356305803
Robertsonpet,Robertsonpet,12.9563,78.2754,India,IN,IND,KarnÄtaka,,207350,1356245899
Dindigul,Dindigul,10.35,77.95,India,IN,IND,Tamil NÄdu,,207327,1356106153
RÄnÄ«wÄra KalÄn,Raniwara Kalan,24.75,72.2167,India,IN,IND,RÄjasthÄn,,206831,1356083104
Shimla,Shimla,31.1033,77.1722,India,IN,IND,HimÄchal Pradesh,admin,206575,1356962932
Hospet,Hospet,15.2689,76.3909,India,IN,IND,KarnÄtaka,,206167,1356241463
MÄldah,Maldah,25.0044,88.1458,India,IN,IND,West Bengal,,205521,1356350335
Ongole,Ongole,15.506,80.049,India,IN,IND,Andhra Pradesh,,204746,1356385136
Betigeri,Betigeri,15.443,75.6442,India,IN,IND,KarnÄtaka,,204576,1356503334
Kodumur,Kodumur,15.6833,77.7833,India,IN,IND,Andhra Pradesh,,203954,1356171101
Ellore,Ellore,16.7117,81.1031,India,IN,IND,Andhra Pradesh,,203780,1356931882
Deoghar,Deoghar,24.48,86.7,India,IN,IND,JhÄrkhand,,203116,1356054191
ChhindwÄra,Chhindwara,22.057,78.9396,India,IN,IND,Madhya Pradesh,,202688,1356167692
Lingampalli,Lingampalli,17.4865,78.317,India,IN,IND,TelangÄna,,202440,1356038214
Mokameh,Mokameh,25.3898,85.9191,India,IN,IND,BihÄr,,202411,1356053965
Puri,Puri,19.8,85.8167,India,IN,IND,Odisha,,201026,1356558409
Haldia,Haldia,22.0667,88.0698,India,IN,IND,West Bengal,,200827,1356491171
Khandwa,Khandwa,21.82,76.35,India,IN,IND,Madhya Pradesh,,200738,1356696980
NandyÄl,Nandyal,15.48,78.48,India,IN,IND,Andhra Pradesh,,200516,1356671879
Pulimaddi,Pulimaddi,15.5386,78.4613,India,IN,IND,Andhra Pradesh,,200516,1356431352
Morena,Morena,26.5,78,India,IN,IND,Madhya Pradesh,,200483,1356019851
Karjat,Karjat,18.55,75,India,IN,IND,MahÄrÄshtra,,200000,1356041311
Drabar,Drabar,33.43,75.09,India,IN,IND,Jammu and KashmÄ«r,,199429,1356426484
Amroha,Amroha,28.9044,78.4675,India,IN,IND,Uttar Pradesh,,198471,1356146062
RÄnÄ«,Rani,9.3667,76.7667,India,IN,IND,Kerala,,198194,1356296209
Chakradharpur,Chakradharpur,22.7,85.63,India,IN,IND,JhÄrkhand,,197953,1356082013
BhiwÄni,Bhiwani,28.78,76.13,India,IN,IND,HaryÄna,,197662,1356780092
Bhind,Bhind,26.5587,78.7871,India,IN,IND,Madhya Pradesh,,197585,1356023125
Khammam,Khammam,17.2473,80.1514,India,IN,IND,TelangÄna,,196283,1356007170
Madhyamgram,Madhyamgram,22.7,88.45,India,IN,IND,West Bengal,,196127,1356501701
GhÄndÄ«nagar,Ghandinagar,23.2231,72.65,India,IN,IND,GujarÄt,admin,195891,1356140914
Baharampur,Baharampur,24.1,88.25,India,IN,IND,West Bengal,,195223,1356612685
Morbi,Morbi,22.82,70.83,India,IN,IND,GujarÄt,,194947,1356746232
PÄndhurnÄ,Pandhurna,21.6,78.52,India,IN,IND,Madhya Pradesh,,193818,1356533618
Fatehpur,Fatehpur,25.93,80.8,India,IN,IND,Uttar Pradesh,,193193,1356059135
RÄe Bareli,Rae Bareli,26.2236,81.2403,India,IN,IND,Uttar Pradesh,,191316,1356437243
DamÄn,Daman,20.42,72.85,India,IN,IND,DÄdra and Nagar Haveli and DamÄn and Diu,admin,191173,1356008028
Orai,Orai,25.98,79.47,India,IN,IND,Uttar Pradesh,,190575,1356928689
MahbÅ«bnagar,Mahbubnagar,16.7488,78.0035,India,IN,IND,TelangÄna,,190400,1356014528
MurtazÄbÄd,Murtazabad,28.7111,77.2688,India,IN,IND,Uttar Pradesh,,189117,1356121128
RÄjendranagar,Rajendranagar,17.3198,78.4031,India,IN,IND,TelangÄna,,189076,1356684638
Ratanpur,Ratanpur,23.0851,72.5716,India,IN,IND,GujarÄt,,187573,1356312913
BhusÄval,Bhusaval,21.05,75.77,India,IN,IND,MahÄrÄshtra,,187421,1356338789
Bahraigh,Bahraigh,27.575,81.594,India,IN,IND,Uttar Pradesh,,186223,1356833304
Umreth,Umreth,22.6986,73.1156,India,IN,IND,GujarÄt,,185320,1356307988
Ittikara,Ittikara,8.8633,76.6972,India,IN,IND,Kerala,,185008,1356161481
MahesÄna,Mahesana,23.6,72.4,India,IN,IND,GujarÄt,,184991,1356719082
RÄiganj,Raiganj,25.62,88.12,India,IN,IND,West Bengal,,183612,1356159126
BatÄla,Batala,31.8186,75.2028,India,IN,IND,Punjab,,183314,1356786750
Sirsa,Sirsa,29.5333,75.0167,India,IN,IND,HaryÄna,,182534,1356966764
Morsi,Morsi,21.318,78.0095,India,IN,IND,MahÄrÄshtra,,182484,1356045043
Dinapore,Dinapore,25.6225,85.0417,India,IN,IND,BihÄr,,182241,1356729186
Tambaram,Tambaram,12.831,80.0459,India,IN,IND,Tamil NÄdu,,182071,1356045454
KÄraikkudi,Karaikkudi,10.0735,78.7732,India,IN,IND,Tamil NÄdu,,181851,1356512763
ShrÄ«rÄmpur,Shrirampur,22.75,88.34,India,IN,IND,West Bengal,,181842,1356021505
Himatnagar,Himatnagar,23.6,72.95,India,IN,IND,GujarÄt,,181137,1356123042
Guna,Guna,24.65,77.32,India,IN,IND,Madhya Pradesh,,180935,1356056608
NawÄda,Nawada,24.88,85.53,India,IN,IND,BihÄr,,180740,1356092302
Jaunpur,Jaunpur,25.73,82.68,India,IN,IND,Uttar Pradesh,,180362,1356646586
MahÄd,Mahad,18.083,73.417,India,IN,IND,MahÄrÄshtra,,180191,1356857934
Madanapalle,Madanapalle,13.55,78.5,India,IN,IND,Andhra Pradesh,,180180,1356232508
Wadlakonda,Wadlakonda,17.7736,79.575,India,IN,IND,TelangÄna,,180000,1356041600
BhachÄu,Bhachau,23.296,70.343,India,IN,IND,GujarÄt,,180000,1356280913
Shivpuri,Shivpuri,25.43,77.65,India,IN,IND,Madhya Pradesh,,179977,1356583527
SÄtÄra,Satara,17.688,74.006,India,IN,IND,MahÄrÄshtra,,179147,1356054526
Phillaur,Phillaur,31.03,75.78,India,IN,IND,Punjab,,178198,1356134568
UnnÄo,Unnao,26.55,80.49,India,IN,IND,Uttar Pradesh,,177658,1356012340
SÄ«tÄpur,Sitapur,27.57,80.66,India,IN,IND,Uttar Pradesh,,177351,1356217368
Kalamboli,Kalamboli,19.2333,73.1333,India,IN,IND,MahÄrÄshtra,,177154,1356537020
WÄrÄseonÄ«,Waraseoni,21.7647,80.0494,India,IN,IND,Madhya Pradesh,,176291,1356634180
Mauli,Mauli,30.699,76.693,India,IN,IND,Punjab,,176152,1356181198
Harnaut,Harnaut,25.3694,85.5319,India,IN,IND,BihÄr,,176140,1356276550
NavadwÄ«p,Navadwip,23.42,88.37,India,IN,IND,West Bengal,,175474,1356449184
KotdwÄra,Kotdwara,29.75,78.53,India,IN,IND,UttarÄkhand,,175232,1356826143
PÄ«libhÄ«t,Pilibhit,28.6267,79.8058,India,IN,IND,Uttar Pradesh,,175000,1356147005
Alleppey,Alleppey,9.49,76.33,India,IN,IND,Kerala,,174176,1356293762
Cuddalore,Cuddalore,11.75,79.75,India,IN,IND,Tamil NÄdu,,173676,1356544008
Gondal,Gondal,21.958,70.795,India,IN,IND,GujarÄt,,173353,1356305049
Deo,Deo,24.6561,84.4356,India,IN,IND,BihÄr,,173216,1356131438
Silchar,Silchar,24.82,92.8,India,IN,IND,Assam,,172830,1356102467
ChÄ«rÄla,Chirala,15.8246,80.3521,India,IN,IND,Andhra Pradesh,,172826,1356100300
Gadag,Gadag,15.4167,75.6167,India,IN,IND,KarnÄtaka,,172813,1356659359
TiruvannÄmalai,Tiruvannamalai,12.13,79.07,India,IN,IND,Tamil NÄdu,,172348,1356561184
BÄ«dar,Bidar,17.912,77.52,India,IN,IND,KarnÄtaka,,172298,1356933453
JalÄlÄbÄd,Jalalabad,30.62,74.25,India,IN,IND,Punjab,,172000,1356892150
Nawsari,Nawsari,20.95,72.93,India,IN,IND,GujarÄt,,171109,1356363404
ValsÄd,Valsad,20.61,72.926,India,IN,IND,GujarÄt,,170060,1356306193
MedinÄ«pur,Medinipur,22.424,87.319,India,IN,IND,West Bengal,,169264,1356432910
Damoh,Damoh,23.8331,79.4419,India,IN,IND,Madhya Pradesh,,168916,1356070737
HarÄ«pur,Haripur,31.53,75.92,India,IN,IND,Punjab,,168443,1356141115
Neyveli,Neyveli,11.6088,79.4994,India,IN,IND,Tamil NÄdu,,168368,1356265572
BÄramÅ«la,Baramula,34.198,74.364,India,IN,IND,Jammu and KashmÄ«r,,167986,1356671176
MalkÄpur,Malkapur,20.885,76.2,India,IN,IND,MahÄrÄshtra,,167740,1356838464
JÄ«nd,Jind,29.3167,76.3167,India,IN,IND,HaryÄna,,167592,1356620188
Chandannagar,Chandannagar,22.87,88.38,India,IN,IND,West Bengal,,166867,1356174802
Ä€doni,Adoni,15.6279,77.2749,India,IN,IND,Andhra Pradesh,,166344,1356357749
Alasandigutta,Alasandigutta,15.6244,77.2731,India,IN,IND,Andhra Pradesh,,166344,1356256634
Udipi,Udipi,13.3389,74.7451,India,IN,IND,KarnÄtaka,,165401,1356145399
FyzÄbÄd,Fyzabad,26.773,82.146,India,IN,IND,Uttar Pradesh,,165228,1356032860
SawÄi MÄdhopur,Sawai Madhopur,26,76.35,India,IN,IND,RÄjasthÄn,,165000,1356577479
TenÄli,Tenali,16.239,80.645,India,IN,IND,Andhra Pradesh,,164937,1356831482
Conjeeveram,Conjeeveram,12.8185,79.6947,India,IN,IND,Tamil NÄdu,,164384,1356148941
Madhubani,Madhubani,26.3519,86.0719,India,IN,IND,BihÄr,,164156,1356042500
ProddatÅ«r,Proddatur,14.75,78.55,India,IN,IND,Andhra Pradesh,,163970,1356025913
SultÄnpur Mazra,Sultanpur Mazra,28.6981,77.0689,India,IN,IND,Delhi,,163716,1356062549
WÄpi,Wapi,20.372,72.917,India,IN,IND,GujarÄt,,163630,1356248785
Godhra,Godhra,22.7772,73.6203,India,IN,IND,GujarÄt,,161925,1356386046
Multai,Multai,21.77,78.25,India,IN,IND,Madhya Pradesh,,161819,1356137691
RÄjapÄlaiyam,Rajapalaiyam,9.4204,77.58,India,IN,IND,Tamil NÄdu,,161445,1356110350
Pangzawl,Pangzawl,22.91,92.76,India,IN,IND,Mizoram,,161428,1356878082
Chittoor,Chittoor,13.216,79.098,India,IN,IND,Andhra Pradesh,,160722,1356026391
SivakÄsi,Sivakasi,9.4533,77.8024,India,IN,IND,Tamil NÄdu,,160047,1356111487
Moga,Moga,30.822,75.174,India,IN,IND,Punjab,,159897,1356017151
Budaun,Budaun,28.05,79.12,India,IN,IND,Uttar Pradesh,,159221,1356639213
UttarpÄra,Uttarpara,22.67,88.35,India,IN,IND,West Bengal,,159147,1356370311
Daltonganj,Daltonganj,24.03,84.07,India,IN,IND,JhÄrkhand,,158941,1356991205
BharÅ«ch,Bharuch,21.712,72.993,India,IN,IND,GujarÄt,,158253,1356981799
Saharsa,Saharsa,25.88,86.6,India,IN,IND,BihÄr,,156540,1356492911
Vidisha,Vidisha,23.53,77.82,India,IN,IND,Madhya Pradesh,,155959,1356299932
PathÄnkot,Pathankot,32.2668,75.6,India,IN,IND,Punjab,,155909,1356878237
Nowgong,Nowgong,26.3504,92.6796,India,IN,IND,Assam,,155889,1356273589
ThÄnesar,Thanesar,29.9667,76.8167,India,IN,IND,HaryÄna,,154962,1356380934
Kishangarh,Kishangarh,26.57,74.87,India,IN,IND,RÄjasthÄn,,154886,1356854319
Rudarpur,Rudarpur,28.98,79.4,India,IN,IND,UttarÄkhand,,154485,1356437436
TindwÄra,Tindwara,25.4833,80.3333,India,IN,IND,Uttar Pradesh,,154428,1356098059
Nalgonda,Nalgonda,17.05,79.27,India,IN,IND,TelangÄna,,154326,1356414359
AmbikÄpur,Ambikapur,23.12,83.2,India,IN,IND,ChhattÄ«sgarh,,154104,1356110265
Dibrugarh,Dibrugarh,27.48,95,India,IN,IND,Assam,,154019,1356100193
VerÄval,Veraval,20.9159,70.3629,India,IN,IND,GujarÄt,,153696,1356346826
BetÅ«l BazÄr,Betul Bazar,21.905,77.902,India,IN,IND,Madhya Pradesh,,153330,1356866032
BÄlurghÄt,Balurghat,25.22,88.76,India,IN,IND,West Bengal,,153279,1356496150
JorhÄt,Jorhat,26.75,94.22,India,IN,IND,Assam,,153249,1356638741
Krishnanagar,Krishnanagar,23.4,88.5,India,IN,IND,West Bengal,,153062,1356128689
BÄrÄkpur,Barakpur,22.76,88.37,India,IN,IND,West Bengal,,152783,1356768708
ShÄntipur,Shantipur,23.25,88.43,India,IN,IND,West Bengal,,151777,1356584320
Hindupur,Hindupur,13.83,77.49,India,IN,IND,Andhra Pradesh,,151677,1356805611
BeÄwar,Beawar,26.1,74.32,India,IN,IND,RÄjasthÄn,,151472,1356028963
BhÄlswa Jahangirpur,Bhalswa Jahangirpur,28.7354,77.1638,India,IN,IND,Delhi,,151427,1356078316
Erode,Erode,11.3409,77.7171,India,IN,IND,Tamil NÄdu,,151184,1356040695
NÄngloi JÄt,Nangloi Jat,28.6833,77.0667,India,IN,IND,Delhi,,150371,1356389587
Soro,Soro,21.29,86.69,India,IN,IND,Odisha,,150000,1356411349
NÅ«zvÄ«d,Nuzvid,16.7881,80.8465,India,IN,IND,Andhra Pradesh,,148590,1356713948
SitÄrganj,Sitarganj,28.93,79.7,India,IN,IND,UttarÄkhand,,148266,1356157911
HÄjÄ«pur,Hajipur,25.6925,85.2084,India,IN,IND,BihÄr,,147688,1356014808
HÄbra,Habra,22.83,88.63,India,IN,IND,West Bengal,,147221,1356091822
BÄ«r,Bir,18.99,75.76,India,IN,IND,MahÄrÄshtra,,146709,1356753116
Amreli,Amreli,21.6006,71.2164,India,IN,IND,GujarÄt,,146014,1356536773
NÄrnaul,Narnaul,28.0444,76.1056,India,IN,IND,HaryÄna,,145897,1356512084
Chitaldrug,Chitaldrug,14.23,76.4,India,IN,IND,KarnÄtaka,,145853,1356668514
Etah,Etah,27.63,78.67,India,IN,IND,Uttar Pradesh,,145601,1356096916
Abohar,Abohar,30.1334,74.2001,India,IN,IND,Punjab,,145302,1356846795
Kaithal,Kaithal,29.8015,76.3998,India,IN,IND,HaryÄna,,144915,1356810758
Balasore,Balasore,21.5033,86.925,India,IN,IND,Odisha,,144373,1356515589
Mallapalli,Mallapalli,9.4461,76.6567,India,IN,IND,Kerala,,143677,1356908695
Koiridih,Koiridih,24.18,86.3,India,IN,IND,JhÄrkhand,,143529,1356249967
Shillong,Shillong,25.5822,91.8944,India,IN,IND,MeghÄlaya,admin,143229,1356533936
RewÄri,Rewari,28.1833,76.6167,India,IN,IND,HaryÄna,,143021,1356557800
HazÄribÄgh,Hazaribagh,23.98,85.35,India,IN,IND,JhÄrkhand,,142489,1356960055
BhÄ«mavaram,Bhimavaram,16.543,81.523,India,IN,IND,Andhra Pradesh,,142184,1356195520
Mandsaur,Mandsaur,24.03,75.08,India,IN,IND,Madhya Pradesh,,141667,1356467529
Villupuram,Villupuram,11.9401,79.4861,India,IN,IND,Tamil NÄdu,,141036,1356999657
Harchandpur,Harchandpur,26.36,81.17,India,IN,IND,Uttar Pradesh,,140274,1356717769
Kumbakonam,Kumbakonam,10.9602,79.3845,India,IN,IND,Tamil NÄdu,,140156,1356960436
Aul,Aul,20.67,86.64,India,IN,IND,Odisha,,139628,1356446437
KolÄr,Kolar,13.1333,78.1333,India,IN,IND,KarnÄtaka,,138462,1356953848
Chicacole,Chicacole,18.3,83.9,India,IN,IND,Andhra Pradesh,,137944,1356141471
BÄnkura,Bankura,23.25,87.07,India,IN,IND,West Bengal,,137386,1356582158
Mandya,Mandya,12.52,76.9,India,IN,IND,KarnÄtaka,,137358,1356039212
Dehri,Dehri,24.91,84.18,India,IN,IND,BihÄr,,137231,1356452600
Durgauti,Durgauti,25.2114,83.5308,India,IN,IND,BihÄr,,136962,1356254485
Mainpuri,Mainpuri,27.23,79.02,India,IN,IND,Uttar Pradesh,,136557,1356156341
TalaivÄsal,Talaivasal,11.5867,78.7583,India,IN,IND,Tamil NÄdu,,136026,1356044158
DÄ«sa,Disa,24.2501,72.1822,India,IN,IND,GujarÄt,,135869,1356984967
Raigarh,Raigarh,21.8974,83.395,India,IN,IND,ChhattÄ«sgarh,,135363,1356458234
SiwÄn,Siwan,26.22,84.36,India,IN,IND,BihÄr,,135066,1356238764
Kalol,Kalol,23.246,72.496,India,IN,IND,GujarÄt,,133737,1356235543
Hassan,Hassan,13.012,76.068,India,IN,IND,KarnÄtaka,,133436,1356007455
Lalitpur,Lalitpur,24.69,78.41,India,IN,IND,Uttar Pradesh,,133305,1356624160
GondiÄ,Gondia,21.4598,80.195,India,IN,IND,MahÄrÄshtra,,132821,1356105759
DalÅ«pura,Dalupura,28.6004,77.3194,India,IN,IND,Delhi,,132628,1356492855
NaryÄi ka Puri,Naryai ka Puri,26.52,78.35,India,IN,IND,Madhya Pradesh,,132072,1356440832
Palwal,Palwal,28.1447,77.3255,India,IN,IND,HaryÄna,,131926,1356128481
PÄlghÄt,Palghat,10.775,76.651,India,IN,IND,Kerala,,130955,1356115164
ChittandikavundanÅ«r,Chittandikavundanur,10.6129,76.8508,India,IN,IND,Tamil NÄdu,,130736,1356162407
Ä€nand,Anand,22.556,72.951,India,IN,IND,GujarÄt,,130462,1356044073
BotÄd,Botad,22.17,71.67,India,IN,IND,GujarÄt,,130302,1356518433
Bongaigaon,Bongaigaon,26.4769,90.5583,India,IN,IND,Assam,,129894,1356037877
MukeriÄn,Mukerian,31.95,75.62,India,IN,IND,Punjab,,129841,1356427915
HanumÄngarh,Hanumangarh,29.58,74.32,India,IN,IND,RÄjasthÄn,,129654,1356133715
Jetpur,Jetpur,21.7542,70.6222,India,IN,IND,GujarÄt,,129653,1356272214
Arcot,Arcot,12.9047,79.3238,India,IN,IND,Tamil NÄdu,,129640,1356293782
KÄnchrÄpÄra,Kanchrapara,22.9456,88.4332,India,IN,IND,West Bengal,,129576,1356022687
HoshangÄbÄd,Hoshangabad,22.7475,77.7274,India,IN,IND,Madhya Pradesh,,128599,1356003812
ChÄs,Chas,23.63,86.17,India,IN,IND,JhÄrkhand,,128331,1356317326
Khanna,Khanna,30.7,76.22,India,IN,IND,Punjab,,128137,1356905575
Nagda,Nagda,23.4564,75.4131,India,IN,IND,Madhya Pradesh,,127484,1356765829
HardoÄ«,Hardoi,27.42,80.12,India,IN,IND,Uttar Pradesh,,126851,1356596710
Guntakal,Guntakal,15.17,77.38,India,IN,IND,Andhra Pradesh,,126270,1356140724
Pithampur,Pithampur,22.6197,75.6933,India,IN,IND,Madhya Pradesh,,126099,1356912433
PÄtan,Patan,23.85,72.125,India,IN,IND,GujarÄt,,125497,1356500905
BasÄ«rhat,Basirhat,22.6572,88.8942,India,IN,IND,West Bengal,,125254,1356109985
HÄlÄ«sahar,Halisahar,22.9469,88.4184,India,IN,IND,West Bengal,,124939,1356242644
JagÄdhri,Jagadhri,30.168,77.301,India,IN,IND,HaryÄna,,124894,1356688355
SunÄm,Sunam,30.13,75.8,India,IN,IND,Punjab,,124590,1356036724
Rishra,Rishra,22.71,88.35,India,IN,IND,West Bengal,,124577,1356339732
JhÄrsugra,Jharsugra,21.85,84.03,India,IN,IND,Odisha,,124500,1356155035
PÄli,Pali,23.35,81.05,India,IN,IND,Madhya Pradesh,,124175,1356107944
NÄndgaon,Nandgaon,20.307,74.657,India,IN,IND,MahÄrÄshtra,,123191,1356282779
AlwÄl,Alwal,17.5047,78.5038,India,IN,IND,TelangÄna,,123031,1356947057
DimÄpur,Dimapur,25.92,93.73,India,IN,IND,NÄgÄland,,122834,1356155429
SarangÄpuram,Sarangapuram,18.9447,78.9936,India,IN,IND,TelangÄna,,122368,1356264983
Bhadrakh,Bhadrakh,21.0545,86.5156,India,IN,IND,Odisha,,122119,1356245799
Dharmavaram,Dharmavaram,14.43,77.72,India,IN,IND,Andhra Pradesh,,121874,1356879569
Sivaganga,Sivaganga,9.8433,78.4809,India,IN,IND,Tamil NÄdu,,121796,1356528232
Puruliya,Puruliya,23.34,86.36,India,IN,IND,West Bengal,,121067,1356350196
GhazÄ«pur,Ghazipur,25.58,83.57,India,IN,IND,Uttar Pradesh,,121020,1356773744
Bagaha,Bagaha,27.0992,84.09,India,IN,IND,BihÄr,,120736,1356397208
GudiyÄttam,Gudiyattam,12.9476,78.87,India,IN,IND,Tamil NÄdu,,120716,1356530159
Mahuva,Mahuva,21.0833,71.8,India,IN,IND,GujarÄt,,120685,1356440104
GurdÄspur,Gurdaspur,32.0333,75.4,India,IN,IND,Punjab,,120564,1356120401
Khurda,Khurda,20.18,85.62,India,IN,IND,Odisha,,120204,1356021518
Nokha,Nokha,27.6,73.42,India,IN,IND,RÄjasthÄn,,120000,1356674096
Jandrapeta,Jandrapeta,15.8246,80.3521,India,IN,IND,Andhra Pradesh,,120000,1356205951
Hengken,Hengken,24.346,93.7,India,IN,IND,Manipur,,120000,1356683858
Yelahanka,Yelahanka,13.1007,77.5963,India,IN,IND,KarnÄtaka,,119891,1356308936
Darjeeling,Darjeeling,27.0375,88.2631,India,IN,IND,West Bengal,,118805,1356267176
Sopur,Sopur,34.3,74.47,India,IN,IND,Jammu and KashmÄ«r,,118608,1356978065
ChikmagalÅ«r,Chikmagalur,13.313,75.737,India,IN,IND,KarnÄtaka,,118401,1356137222
GudivÄda,Gudivada,16.43,80.99,India,IN,IND,Andhra Pradesh,,118167,1356068699
PhagwÄra,Phagwara,31.22,75.77,India,IN,IND,Punjab,,117954,1356342384
Pudukkottai,Pudukkottai,10.3833,78.8001,India,IN,IND,Tamil NÄdu,,117745,1356619182
AdilÄbÄd,Adilabad,19.6667,78.5333,India,IN,IND,TelangÄna,,117167,1356085840
BaripÄda,Baripada,21.94,86.72,India,IN,IND,Odisha,,116874,1356029420
YavatmÄl,Yavatmal,20.24,78.06,India,IN,IND,MahÄrÄshtra,,116551,1356201218
TitÄgarh,Titagarh,22.74,88.37,India,IN,IND,West Bengal,,116541,1356590173
BarnÄla,Barnala,30.37,75.54,India,IN,IND,Punjab,,116450,1356892286
Chittaurgarh,Chittaurgarh,24.88,74.63,India,IN,IND,RÄjasthÄn,,116406,1356110002
Narasaraopet,Narasaraopet,16.236,80.0498,India,IN,IND,Andhra Pradesh,,116250,1356923354
Kovilpatti,Kovilpatti,9.1744,77.8688,India,IN,IND,Tamil NÄdu,,115434,1356026173
Bijnor,Bijnor,29.37,78.13,India,IN,IND,Uttar Pradesh,,115381,1356562939
Dam Dam,Dam Dam,22.62,88.42,India,IN,IND,West Bengal,,114786,1356051452
Kaikkudi,Kaikkudi,9.893,78.7313,India,IN,IND,Tamil NÄdu,,114306,1356219581
BalÄngÄ«r,Balangir,20.72,83.48,India,IN,IND,Odisha,,112544,1356034887
Shegaon,Shegaon,20.7944,76.6944,India,IN,IND,MahÄrÄshtra,,112539,1356687763
MahÄsamund,Mahasamund,21.11,82.1,India,IN,IND,ChhattÄ«sgarh,,112228,1356258690
RÄjpura,Rajpura,30.484,76.594,India,IN,IND,Punjab,,112193,1356280770
BÄgalkot,Bagalkot,16.1817,75.6958,India,IN,IND,KarnÄtaka,,112090,1356504504
OsmÄnÄbÄd,Osmanabad,18.3194,76.0736,India,IN,IND,MahÄrÄshtra,,112085,1356005329
KaliÄnpur,Kalianpur,26.5191,80.2498,India,IN,IND,Uttar Pradesh,,112014,1356957753
ShujÄlpur,Shujalpur,23.4,76.72,India,IN,IND,Madhya Pradesh,,112000,1356623938
SÄhibganj,Sahibganj,25.25,87.65,India,IN,IND,JhÄrkhand,,111954,1356080912
Champdani,Champdani,22.802,88.346,India,IN,IND,West Bengal,,111251,1356132208
Nandurbar,Nandurbar,21.37,74.25,India,IN,IND,MahÄrÄshtra,,111000,1356692923
Purwa Utar,Purwa Utar,26.068,83.184,India,IN,IND,Uttar Pradesh,,110983,1356404695
Muktsar,Muktsar,30.4743,74.5166,India,IN,IND,Punjab,,110424,1356134091
Ferozepore,Ferozepore,30.9166,74.6,India,IN,IND,Punjab,,110313,1356060515
MancherÄl,Mancheral,18.8714,79.4443,India,IN,IND,TelangÄna,,110000,1356990383
Sehore,Sehore,23.2,77.08,India,IN,IND,Madhya Pradesh,,109118,1356587614
Bangaon,Bangaon,23.07,88.82,India,IN,IND,West Bengal,,108864,1356624441
Khopoli,Khopoli,18.789,73.343,India,IN,IND,MahÄrÄshtra,,108648,1356831647
IslÄmÄbÄd,Islamabad,33.7353,75.1478,India,IN,IND,Jammu and KashmÄ«r,,108505,1356324247
Khardah,Khardah,22.72,88.38,India,IN,IND,West Bengal,,108496,1356765227
Mungeli,Mungeli,22.07,81.68,India,IN,IND,ChhattÄ«sgarh,,108387,1356114358
TÄdpatri,Tadpatri,14.92,78.02,India,IN,IND,Andhra Pradesh,,108171,1356318314
Gharbara,Gharbara,28.47,77.51,India,IN,IND,Uttar Pradesh,,107676,1356603709
SultÄnpur,Sultanpur,26.2583,82.0722,India,IN,IND,Uttar Pradesh,,107640,1356067042
ShikohÄbÄd,Shikohabad,27.1,78.6,India,IN,IND,Uttar Pradesh,,107404,1356626392
JalpÄiguri,Jalpaiguri,26.52,88.73,India,IN,IND,West Bengal,,107341,1356763479
ShÄmli,Shamli,29.45,77.32,India,IN,IND,Uttar Pradesh,,107233,1356018667
Bhilai Karanja,Bhilai Karanja,21.2198,81.4575,India,IN,IND,ChhattÄ«sgarh,,107170,1356926860
SuriÄpet,Suriapet,17.1415,79.6236,India,IN,IND,TelangÄna,,106805,1356067301
Wardha,Wardha,20.7417,78.6056,India,IN,IND,MahÄrÄshtra,,106444,1356053524
RÄnÄ«bennur,Ranibennur,14.6167,75.6167,India,IN,IND,KarnÄtaka,,106406,1356823654
Barnoi,Barnoi,32.43,75.43,India,IN,IND,Jammu and KashmÄ«r,,106169,1356325675
SÄ«tÄmarhi,Sitamarhi,26.6,85.48,India,IN,IND,BihÄr,,106093,1356186196
Kishanganj,Kishanganj,26.0794,87.9372,India,IN,IND,West Bengal,,105782,1356127495
Hindaun,Hindaun,26.74,77.03,India,IN,IND,RÄjasthÄn,,105690,1356608940
SemÄri,Semari,24.0555,73.8566,India,IN,IND,RÄjasthÄn,,105686,1356010896
GangÄwati,Gangawati,15.43,76.53,India,IN,IND,KarnÄtaka,,105529,1356899767
Nautanwa,Nautanwa,27.43,83.42,India,IN,IND,Uttar Pradesh,,105345,1356061939
JamÄlpur,Jamalpur,25.3,86.5,India,IN,IND,BihÄr,,105221,1356530461
MakrÄna,Makrana,27.0409,74.7273,India,IN,IND,RÄjasthÄn,,105080,1356115611
Sheopur,Sheopur,25.67,76.7,India,IN,IND,Madhya Pradesh,,105026,1356713793
Ballia,Ballia,25.7604,84.1471,India,IN,IND,Uttar Pradesh,,104424,1356194087
TÄdepallegÅ«dem,Tadepallegudem,16.815,81.526,India,IN,IND,Andhra Pradesh,,104032,1356576541
BÄnsbÄria,Bansbaria,22.97,88.4,India,IN,IND,West Bengal,,103920,1356897672
BÅ«ndi,Bundi,25.44,75.64,India,IN,IND,RÄjasthÄn,,103286,1356402465
AmarÄvati,Amaravati,16.5131,80.5165,India,IN,IND,Andhra Pradesh,admin,103000,1356002501
Negapatam,Negapatam,10.7672,79.8449,India,IN,IND,Tamil NÄdu,,102905,1356879770
Buxar,Buxar,25.5605,83.9805,India,IN,IND,BihÄr,,102861,1356331714
Kurichchi,Kurichchi,10.9609,76.9738,India,IN,IND,Tamil NÄdu,,102765,1356159322
Kheda,Kheda,22.75,72.68,India,IN,IND,GujarÄt,,102587,1356153866
Tezpur,Tezpur,26.63,92.8,India,IN,IND,Assam,,102505,1356299437
Sundarnagar,Sundarnagar,31.53,76.88,India,IN,IND,HimÄchal Pradesh,,102401,1356852734
Seoni,Seoni,22.08,79.53,India,IN,IND,Madhya Pradesh,,102343,1356071437
AurangÄbÄd,Aurangabad,24.7,84.35,India,IN,IND,BihÄr,,102244,1356920493
RishÄ«kesh,Rishikesh,30.1083,78.2972,India,IN,IND,UttarÄkhand,,102138,1356965119
KapÅ«rthala,Kapurthala,31.38,75.38,India,IN,IND,Punjab,,101854,1356092924
Dhamtari,Dhamtari,20.71,81.55,India,IN,IND,ChhattÄ«sgarh,,101677,1356754128
RÄneswar,Raneswar,24.0311,87.4197,India,IN,IND,JhÄrkhand,,101667,1356773402
BrÄjarÄjnagar,Brajarajnagar,21.8167,83.9167,India,IN,IND,Odisha,,101585,1356019758
SÅ«jÄngarh,Sujangarh,27.7,74.47,India,IN,IND,RÄjasthÄn,,101528,1356081471
Bhadreswar,Bhadreswar,22.82,88.35,India,IN,IND,West Bengal,,101477,1356320019
ChilakalÅ«rupet,Chilakalurupet,16.0892,80.1672,India,IN,IND,Andhra Pradesh,,101398,1356065865
Jeypore,Jeypore,18.8563,82.5716,India,IN,IND,Odisha,,101145,1356121332
KÄranja,Karanja,20.4833,77.4833,India,IN,IND,MahÄrÄshtra,,100947,1356886242
Chanwari,Chanwari,23.1917,82.3542,India,IN,IND,ChhattÄ«sgarh,,100800,1356321736
Port Blair,Port Blair,11.6683,92.7378,India,IN,IND,Andaman and Nicobar Islands,admin,100608,1356161713
Kalyani,Kalyani,22.975,88.4344,India,IN,IND,West Bengal,,100575,1356108133
Datia,Datia,25.67,78.47,India,IN,IND,Madhya Pradesh,,100466,1356903057
Madhavaram,Madhavaram,13.1482,80.2314,India,IN,IND,Tamil NÄdu,,100442,1356330429
Gangtok,Gangtok,27.33,88.62,India,IN,IND,Sikkim,admin,100286,1356689564
SuramÄla,Suramala,13.76,79.7,India,IN,IND,Andhra Pradesh,,100000,1356049007
Navalyal,Navalyal,16.48,74.78,India,IN,IND,KarnÄtaka,,100000,1356922956
Barod,Barod,27.8947,76.3681,India,IN,IND,RÄjasthÄn,,100000,1356077338
VÄsco Da GÄma,Vasco Da Gama,15.3981,73.8111,India,IN,IND,Goa,,100000,1356688186
KhambhÄliya,Khambhaliya,22.2,69.65,India,IN,IND,GujarÄt,,100000,1356128387
Abbigeri,Abbigeri,13.0767,77.525,India,IN,IND,KarnÄtaka,,100000,1356908177
Kundli,Kundli,28.99,77.022,India,IN,IND,HaryÄna,,100000,1356558693
Luckeesarai,Luckeesarai,25.1678,86.0944,India,IN,IND,BihÄr,,99979,1356958915
KadaiyanallÅ«r,Kadaiyanallur,9.0743,77.3419,India,IN,IND,Tamil NÄdu,,99807,1356371792
Tinsukia,Tinsukia,27.5,95.367,India,IN,IND,Assam,,99507,1356391413
Tellicherry,Tellicherry,11.7481,75.4929,India,IN,IND,Kerala,,99386,1356231014
ItÄrsi,Itarsi,22.6115,77.7623,India,IN,IND,Madhya Pradesh,,99330,1356602700
KohÄ«ma,Kohima,25.67,94.1,India,IN,IND,NÄgÄland,admin,99039,1356332206
KhambhÄt,Khambhat,22.3,72.62,India,IN,IND,GujarÄt,,98700,1356354348
Silvassa,Silvassa,20.2667,73.0167,India,IN,IND,DÄdra and Nagar Haveli and DamÄn and Diu,,98266,1356217846
RÄmnagar,Ramnagar,29.395,79.1264,India,IN,IND,UttarÄkhand,,97916,1356653209
Deoni Buzurg,Deoni Buzurg,18.2639,77.0822,India,IN,IND,MahÄrÄshtra,,97598,1356905462
KallÅ«ru,Kalluru,15.8344,78.0292,India,IN,IND,Andhra Pradesh,,97483,1356411831
BodinÄyakkanÅ«r,Bodinayakkanur,10.0101,77.3511,India,IN,IND,Tamil NÄdu,,96901,1356254878
Harihar,Harihar,14.5129,75.8072,India,IN,IND,KarnÄtaka,,96422,1356008032
Bachhraon,Bachhraon,28.93,78.22,India,IN,IND,Uttar Pradesh,,95999,1356855458
Amalner,Amalner,21.05,75.05,India,IN,IND,MahÄrÄshtra,,95994,1356850132
SardÄrshahr,Sardarshahr,28.4401,74.4908,India,IN,IND,RÄjasthÄn,,95911,1356932502
DhuliÄn,Dhulian,24.681,87.954,India,IN,IND,West Bengal,,95706,1356241829
Paramagudi,Paramagudi,9.5494,78.5891,India,IN,IND,Tamil NÄdu,,95579,1356185369
Zerakpur,Zerakpur,30.65,76.82,India,IN,IND,Punjab,,95553,1356277173
Tandwa,Tandwa,26.55,82.65,India,IN,IND,Uttar Pradesh,,95516,1356683773
Tiruchengodu,Tiruchengodu,11.379,77.8949,India,IN,IND,Tamil NÄdu,,95335,1356749372
PedagÄdi,Pedagadi,17.6615,83.2104,India,IN,IND,Andhra Pradesh,,95291,1356235887
NagÄ«na,Nagina,29.443,78.433,India,IN,IND,Uttar Pradesh,,95246,1356185479
ChÄkdaha,Chakdaha,23.08,88.52,India,IN,IND,West Bengal,,95203,1356089316
Closepet,Closepet,12.723,77.286,India,IN,IND,KarnÄtaka,,95167,1356069377
EmmiganÅ«r,Emmiganur,15.7333,77.4833,India,IN,IND,Andhra Pradesh,,95149,1356089591
YalamakÅ«ru,Yalamakuru,15.5103,77.5249,India,IN,IND,Andhra Pradesh,,95149,1356154626
VÄniyambÄdi,Vaniyambadi,12.6825,78.6167,India,IN,IND,Tamil NÄdu,,95061,1356737709
Tiruttani,Tiruttani,13.18,79.63,India,IN,IND,Tamil NÄdu,,95014,1356102827
Kangan,Kangan,34.263,74.903,India,IN,IND,Jammu and KashmÄ«r,,94874,1356028772
Bhadohi,Bhadohi,25.42,82.57,India,IN,IND,Uttar Pradesh,,94620,1356863173
Allinagaram,Allinagaram,10.0119,77.4786,India,IN,IND,Tamil NÄdu,,94453,1356113956
Marmagao,Marmagao,15.4,73.8,India,IN,IND,Goa,,94393,1356764529
DhÄr,Dhar,22.5972,75.3042,India,IN,IND,Madhya Pradesh,,93917,1356266651
Akot,Akot,21.1,77.06,India,IN,IND,MahÄrÄshtra,,92637,1356644864
Contai,Contai,21.78,87.75,India,IN,IND,West Bengal,,92226,1356643000
Kot KapÅ«ra,Kot Kapura,30.5833,74.9,India,IN,IND,Punjab,,91979,1356007164
KÄrwÄr,Karwar,14.8,74.13,India,IN,IND,KarnÄtaka,,91458,1356118021
MÄndvi,Mandvi,22.8333,69.3556,India,IN,IND,GujarÄt,,91330,1356046879
RÄyachoti,Rayachoti,14.0583,78.7517,India,IN,IND,Andhra Pradesh,,91234,1356147853
PÄloncha,Paloncha,17.6018,80.7051,India,IN,IND,TelangÄna,,91196,1356171257
Lachhmangarh SÄ«kar,Lachhmangarh Sikar,27.8225,75.0253,India,IN,IND,RÄjasthÄn,,90992,1356216971
RÄmagiri Udayagiri,Ramagiri Udayagiri,19.1619,84.144,India,IN,IND,Odisha,,90774,1356046855
PonnÄni,Ponnani,10.77,75.9,India,IN,IND,Kerala,,90491,1356710596
JÄmtÄra,Jamtara,23.9633,86.8014,India,IN,IND,JhÄrkhand,,90426,1356076405
PollÄchi,Pollachi,10.659,77.008,India,IN,IND,Tamil NÄdu,,90180,1356420688
KÄvali,Kavali,14.913,79.9929,India,IN,IND,Andhra Pradesh,,90099,1356816305
Sankeshwar,Sankeshwar,16.27,74.48,India,IN,IND,KarnÄtaka,,89627,1356062129
Kadiri,Kadiri,14.12,78.17,India,IN,IND,Andhra Pradesh,,89429,1356308559
Phusro,Phusro,23.77,85.99,India,IN,IND,JhÄrkhand,,89178,1356193741
KairÄna,Kairana,29.3953,77.2053,India,IN,IND,Uttar Pradesh,,89000,1356768694
Saundatti,Saundatti,15.7833,75.1167,India,IN,IND,KarnÄtaka,,88955,1356668148
RÄsipuram,Rasipuram,11.47,78.17,India,IN,IND,Tamil NÄdu,,88584,1356036977
NajÄ«bÄbÄd,Najibabad,29.6128,78.3425,India,IN,IND,Uttar Pradesh,,88535,1356943602
Nirmal,Nirmal,19.1,78.35,India,IN,IND,TelangÄna,,88433,1356031223
NirÄla,Nirala,19.8143,78.1662,India,IN,IND,MahÄrÄshtra,,88433,1356830965
Ootacamund,Ootacamund,11.41,76.7,India,IN,IND,Tamil NÄdu,,88430,1356809681
Jangipur,Jangipur,24.4691,88.1032,India,IN,IND,West Bengal,,88165,1356655968
SangrÅ«r,Sangrur,30.2506,75.8442,India,IN,IND,Punjab,,88043,1356578624
MettupÄlaiyam,Mettupalaiyam,11.2341,76.9067,India,IN,IND,Tamil NÄdu,,87905,1356679430
Jumri TilaiyÄ,Jumri Tilaiya,24.4289,85.5355,India,IN,IND,JhÄrkhand,,87867,1356900897
Aruppukkottai,Aruppukkottai,9.5139,78.1002,India,IN,IND,Tamil NÄdu,,87722,1356144326
FarÄ«dkot,Faridkot,30.67,74.76,India,IN,IND,Punjab,,87695,1356743545
Madgaon,Madgaon,15.2736,73.9581,India,IN,IND,Goa,,87650,1356337752
Palangotu AdwÄr,Palangotu Adwar,32.7888,76.0009,India,IN,IND,HimÄchal Pradesh,,87535,1356068456
JamÅ«Ä«,Jamui,24.9278,86.2239,India,IN,IND,BihÄr,,87357,1356076412
KumÄrapÄlaiyam,Kumarapalaiyam,11.4416,77.6907,India,IN,IND,Tamil NÄdu,,86945,1356168265
HÄnsi,Hansi,29.1,75.97,India,IN,IND,HaryÄna,,86770,1356181619
Shahdol,Shahdol,23.28,81.35,India,IN,IND,Madhya Pradesh,,86681,1356191462
AnakÄpalle,Anakapalle,17.6913,83.0039,India,IN,IND,Andhra Pradesh,,86519,1356285975
NÄ«mbÄhera,Nimbahera,24.62,74.68,India,IN,IND,RÄjasthÄn,,86453,1356139514
NachchÄndupatti,Nachchandupatti,10.3238,78.7233,India,IN,IND,Tamil NÄdu,,86422,1356174622
Seoni MÄlwa,Seoni Malwa,22.4508,77.4681,India,IN,IND,Madhya Pradesh,,86195,1356893622
SÄrni,Sarni,22.104,78.173,India,IN,IND,Madhya Pradesh,,86141,1356600179
BÄsoda,Basoda,23.8515,77.9365,India,IN,IND,Madhya Pradesh,,85716,1356486235
Maratturai,Maratturai,11.1536,79.5329,India,IN,IND,Tamil NÄdu,,85632,1356242663
KarÄd,Karad,17.285,74.184,India,IN,IND,MahÄrÄshtra,,85500,1356656959
Chinnachauku,Chinnachauku,14.4732,78.8451,India,IN,IND,Andhra Pradesh,,85442,1356975526
Garulia,Garulia,22.82,88.37,India,IN,IND,West Bengal,,85336,1356885496
Krishnagiri,Krishnagiri,12.5317,78.2174,India,IN,IND,Tamil NÄdu,,85254,1356128688
Harda KhÄs,Harda Khas,22.3441,77.0954,India,IN,IND,Madhya Pradesh,,85136,1356762440
Mhow,Mhow,22.55,75.76,India,IN,IND,Madhya Pradesh,,85023,1356097509
DhorÄji,Dhoraji,21.7337,70.4499,India,IN,IND,GujarÄt,,84545,1356595606
VÄ«rappanchathiram,Virappanchathiram,11.3553,77.6678,India,IN,IND,Tamil NÄdu,,84453,1356169564
LÄharpur,Laharpur,27.72,80.9,India,IN,IND,Uttar Pradesh,,84000,1356525825
Diphu,Diphu,25.83,93.43,India,IN,IND,Assam,,84000,1356140802
Channapatna,Channapatna,12.6514,77.2067,India,IN,IND,KarnÄtaka,,83921,1356894522
BhawÄnipatna,Bhawanipatna,19.91,83.128,India,IN,IND,Odisha,,83756,1356317899
Pilkhua,Pilkhua,28.712,77.6545,India,IN,IND,Uttar Pradesh,,83736,1356121422
SamadiÄla,Samadiala,21.337,71.31,India,IN,IND,GujarÄt,,83720,1356166137
TiruppattÅ«r,Tiruppattur,12.4915,78.5684,India,IN,IND,Tamil NÄdu,,83612,1356818110
Gokulgarh,Gokulgarh,28.2468,76.6176,India,IN,IND,HaryÄna,,83310,1356118349
Sirsilla,Sirsilla,18.38,78.83,India,IN,IND,TelangÄna,,83186,1356360144
MÄnsa,Mansa,29.9906,75.3996,India,IN,IND,Punjab,,82956,1356518024
Chingleput,Chingleput,12.6918,79.9766,India,IN,IND,Tamil NÄdu,,82608,1356261740
Saunda,Saunda,23.66,85.35,India,IN,IND,JhÄrkhand,,81915,1356188296
Ashoknagar,Ashoknagar,24.58,77.73,India,IN,IND,Madhya Pradesh,,81828,1356679678
KÄtoya,Katoya,23.65,88.13,India,IN,IND,West Bengal,,81615,1356487359
Kadi,Kadi,23.3009,72.3322,India,IN,IND,GujarÄt,,81404,1356474902
MannÄrgudi,Mannargudi,10.6653,79.4521,India,IN,IND,Tamil NÄdu,,81150,1356628918
BalrÄmpur,Balrampur,27.43,82.18,India,IN,IND,Uttar Pradesh,,81054,1356150506
KhamÄnon KalÄn,Khamanon Kalan,30.82,76.35,India,IN,IND,Punjab,,80991,1356562278
Bargarh,Bargarh,21.3333,83.6167,India,IN,IND,Odisha,,80625,1356834678
DahegÄm,Dahegam,23.17,72.82,India,IN,IND,GujarÄt,,80532,1356022392
KÄmÄreddipet,Kamareddipet,18.3205,78.337,India,IN,IND,TelangÄna,,80315,1356010343
Arni,Arni,12.6677,79.2853,India,IN,IND,Tamil NÄdu,,80275,1356433730
Bolpur,Bolpur,23.67,87.72,India,IN,IND,West Bengal,,80210,1356123985
Peruvancha,Peruvancha,17.1719,80.5839,India,IN,IND,TelangÄna,,80199,1356294882
GumlÄ,Gumla,23.0444,84.5417,India,IN,IND,JhÄrkhand,,80129,1356058585
Simdega,Simdega,22.62,84.52,India,IN,IND,JhÄrkhand,,80129,1356073158
ManmÄd,Manmad,20.251,74.439,India,IN,IND,MahÄrÄshtra,,80058,1356593226
Piro,Piro,25.33,84.42,India,IN,IND,BihÄr,,80000,1356786496
KottagÅ«dem,Kottagudem,17.55,80.63,India,IN,IND,TelangÄna,,79819,1356124457
Dobni Para,Dobni Para,22.8347,74.2556,India,IN,IND,Madhya Pradesh,,79185,1356550673
GokÄk,Gokak,16.1667,74.8333,India,IN,IND,KarnÄtaka,,79121,1356269894
TÄ«kamgarh,Tikamgarh,24.7472,78.85,India,IN,IND,Madhya Pradesh,,79106,1356652037
ArÄria,Araria,26.15,87.52,India,IN,IND,BihÄr,,79021,1356297542
Arkonam,Arkonam,13.0778,79.6667,India,IN,IND,Tamil NÄdu,,78395,1356031273
Tanuku,Tanuku,16.7566,81.677,India,IN,IND,Andhra Pradesh,,77962,1356546052
Koch BihÄr,Koch Bihar,26.3242,89.451,India,IN,IND,West Bengal,,77935,1356121274
KuniyamuttÅ«r,Kuniyamuttur,10.9638,76.9525,India,IN,IND,Tamil NÄdu,,77748,1356159324
Kambam,Kambam,9.7375,77.2823,India,IN,IND,Tamil NÄdu,,77736,1356864573
Bodhan,Bodhan,18.67,77.9,India,IN,IND,TelangÄna,,77573,1356506985
TirkÄkara,Tirkakara,10.035,76.329,India,IN,IND,Kerala,,77319,1356972490
Baj Baj,Baj Baj,22.4828,88.1818,India,IN,IND,West Bengal,,76837,1356102140
NipÄni,Nipani,16.399,74.3829,India,IN,IND,KarnÄtaka,,76666,1356358365
FÄzilka,Fazilka,30.403,74.025,India,IN,IND,Punjab,,76492,1356509839
ShÄjÄpur,Shajapur,23.4264,76.2778,India,IN,IND,Madhya Pradesh,,76319,1356454991
Keshod,Keshod,21.3,70.25,India,IN,IND,GujarÄt,,76193,1356488794
ChintÄmani,Chintamani,13.4,78.066,India,IN,IND,KarnÄtaka,,76068,1356761079
Yanam,Yanam,16.7333,82.2167,India,IN,IND,Andhra Pradesh,,76000,1356982123
Surendranagar,Surendranagar,22.7,71.6833,India,IN,IND,GujarÄt,,75755,1356002804
Malappuram,Malappuram,11.042,76.0815,India,IN,IND,Kerala,,75740,1356088136
Garhi,Garhi,28.6317,77.3186,India,IN,IND,Uttar Pradesh,,75544,1356249734
Tindivanam,Tindivanam,12.2267,79.6504,India,IN,IND,Tamil NÄdu,,75405,1356132369
SrÄ«villiputtÅ«r,Srivilliputtur,9.512,77.633,India,IN,IND,Tamil NÄdu,,75396,1356411981
BhadarwÄh,Bhadarwah,32.98,75.7137,India,IN,IND,Jammu and KashmÄ«r,,75376,1356209475
RÄnÄghÄt,Ranaghat,23.18,88.58,India,IN,IND,West Bengal,,75365,1356577877
DhrÄngadhra,Dhrangadhra,22.98,71.47,India,IN,IND,GujarÄt,,75133,1356143071
Gangammapeta,Gangammapeta,18.498,83.9642,India,IN,IND,Andhra Pradesh,,75017,1356582081
Khejroli,Khejroli,27.37,75.57,India,IN,IND,RÄjasthÄn,,75000,1356851484
Tirumangalam,Tirumangalam,9.8216,77.9891,India,IN,IND,Tamil NÄdu,,75000,1356214298
PardigÅ«da,Pardiguda,17.3974,78.5783,India,IN,IND,TelangÄna,,75000,1356530500
JaorÄ,Jaora,23.63,75.13,India,IN,IND,Madhya Pradesh,,74907,1356111524
Tura,Tura,25.52,90.22,India,IN,IND,MeghÄlaya,,74858,1356555974
AmbÄjogÄi,Ambajogai,18.73,76.38,India,IN,IND,MahÄrÄshtra,,74844,1356117450
Dabra,Dabra,25.8857,78.3322,India,IN,IND,Madhya Pradesh,,74807,1356520849
WandiwÄsh,Wandiwash,12.5,79.62,India,IN,IND,Tamil NÄdu,,74320,1356564734
GÅ«dÅ«r,Gudur,14.1473,79.8477,India,IN,IND,Andhra Pradesh,,74037,1356336545
HÄveri,Haveri,14.7935,75.4045,India,IN,IND,KarnÄtaka,,73805,1356283006
Tarn TÄran,Tarn Taran,31.4519,74.9278,India,IN,IND,Punjab,,73638,1356155717
Mangalagiri,Mangalagiri,16.43,80.55,India,IN,IND,Andhra Pradesh,,73613,1356861607
VriddhÄchalam,Vriddhachalam,11.5,79.33,India,IN,IND,Tamil NÄdu,,73585,1356313384
Kallakkurichchi,Kallakkurichchi,11.738,78.962,India,IN,IND,Tamil NÄdu,,73528,1356128673
KÄsipÄlaiyam,Kasipalaiyam,11.3156,77.7092,India,IN,IND,Tamil NÄdu,,73425,1356169570
Pattukkottai,Pattukkottai,10.43,79.32,India,IN,IND,Tamil NÄdu,,73135,1356044693
Gobindgarh,Gobindgarh,30.6709,76.3019,India,IN,IND,Punjab,,73131,1356126630
Siruguppa,Siruguppa,15.6,77,India,IN,IND,KarnÄtaka,,72503,1356620756
SangÄreddi,Sangareddi,17.6294,78.0917,India,IN,IND,TelangÄna,,72344,1356177714
Virudunagar,Virudunagar,9.568,77.9624,India,IN,IND,Tamil NÄdu,,72296,1356157444
Warora,Warora,20.23,79.0008,India,IN,IND,MahÄrÄshtra,,72126,1356657499
ChaklÄsi,Chaklasi,22.65,72.93,India,IN,IND,GujarÄt,,72000,1356043788
Nilanga,Nilanga,18.1161,76.7525,India,IN,IND,MahÄrÄshtra,,72000,1356358329
QuilÄndi,Quilandi,11.439,75.695,India,IN,IND,Kerala,,71873,1356719358
MandlÄ,Mandla,22.6,80.38,India,IN,IND,Madhya Pradesh,,71579,1356069599
RÄyadrug,Rayadrug,14.6997,76.8524,India,IN,IND,Andhra Pradesh,,71445,1356086451
BilÄra,Bilara,26.1792,73.7056,India,IN,IND,RÄjasthÄn,,71396,1356567691
RÄyagada,Rayagada,19.17,83.42,India,IN,IND,Odisha,,71308,1356978742
ParappanangÄdi,Parappanangadi,11.0497,75.8575,India,IN,IND,Kerala,,71239,1356812567
Ratangarh,Ratangarh,28.0787,74.6219,India,IN,IND,RÄjasthÄn,,71124,1356344775
TÄndÅ«r,Tandur,17.2576,77.5875,India,IN,IND,TelangÄna,,71108,1356472437
MÄrkÄpur,Markapur,15.73,79.26,India,IN,IND,Andhra Pradesh,,71092,1356101278
Malaut,Malaut,30.19,74.499,India,IN,IND,Punjab,,70958,1356603442
KodungallÅ«r,Kodungallur,10.2338,76.1946,India,IN,IND,Kerala,,70868,1356492886
NeyyÄttinkara,Neyyattinkara,8.4,77.08,India,IN,IND,Kerala,,70850,1356391337
FatehÄbÄd,Fatehabad,29.52,75.45,India,IN,IND,HaryÄna,,70777,1356065839
BÄpatla,Bapatla,15.9044,80.4675,India,IN,IND,Andhra Pradesh,,70777,1356828422
Kalamasseri,Kalamasseri,10.052,76.3158,India,IN,IND,Kerala,,70776,1356614388
Badvel,Badvel,14.75,79.05,India,IN,IND,Andhra Pradesh,,70626,1356145368
VÄlpÄrai,Valparai,10.3276,76.9553,India,IN,IND,Tamil NÄdu,,70589,1356065507
SankaranayinÄr Kovil,Sankaranayinar Kovil,9.16,77.55,India,IN,IND,Tamil NÄdu,,70574,1356966080
SÅ«ratgarh,Suratgarh,29.3177,73.8989,India,IN,IND,RÄjasthÄn,,70536,1356840891
Dandeli,Dandeli,15.2667,74.6167,India,IN,IND,KarnÄtaka,,70342,1356782464
NÄndÅ«ra Buzurg,Nandura Buzurg,20.8333,76.4597,India,IN,IND,MahÄrÄshtra,,70200,1356987352
Gaura,Gaura,25.4961,85.9709,India,IN,IND,BihÄr,,70081,1356861053
Bijaynagar,Bijaynagar,25.93,74.6386,India,IN,IND,RÄjasthÄn,,70000,1356404338
Satyamangalam,Satyamangalam,11.5167,77.25,India,IN,IND,Tamil NÄdu,,70000,1356304050
Madhipura,Madhipura,25.92,86.792,India,IN,IND,BihÄr,,70000,1356220190
Kodoli,Kodoli,16.88,74.2,India,IN,IND,MahÄrÄshtra,,70000,1356952242
AvaniyÄpuram,Avaniyapuram,9.8818,78.1125,India,IN,IND,Tamil NÄdu,,69967,1356236929
BasavakalyÄn,Basavakalyan,17.8728,76.9497,India,IN,IND,KarnÄtaka,,69717,1356923425
FarÄ«dpur,Faridpur,28.2086,79.5381,India,IN,IND,Uttar Pradesh,,69700,1356565391
Tripunittura,Tripunittura,9.9439,76.3494,India,IN,IND,Kerala,,69390,1356068495
Nowrangapur,Nowrangapur,19.23,82.55,India,IN,IND,Odisha,,69307,1356752279
DharmasÄgaram,Dharmasagaram,17.9933,79.4428,India,IN,IND,TelangÄna,,69043,1356379504
Varisshiyakuni,Varisshiyakuni,11.6325,75.584,India,IN,IND,Kerala,,68970,1356864441
PÄlghar,Palghar,19.6969,72.7654,India,IN,IND,MahÄrÄshtra,,68931,1356868621
PakribarawÄn,Pakribarawan,24.9516,85.7347,India,IN,IND,BihÄr,,68780,1356513036
KÄyankulam,Kayankulam,9.172,76.501,India,IN,IND,Kerala,,68634,1356157010
ParÄdÄ«p Garh,Paradip Garh,20.316,86.61,India,IN,IND,Odisha,,68585,1356331567
Ilkal,Ilkal,15.9592,76.1135,India,IN,IND,KarnÄtaka,,68534,1356096421
Nihtaur,Nihtaur,29.33,78.38,India,IN,IND,Uttar Pradesh,,68500,1356110156
Anjangaon,Anjangaon,21.15,77.28,India,IN,IND,MahÄrÄshtra,,68380,1356712792
RenukÅ«t,Renukut,24.2,83.03,India,IN,IND,Uttar Pradesh,,68000,1356918335
NÄbha,Nabha,30.37,76.15,India,IN,IND,Punjab,,67972,1356183052
Siuri,Siuri,23.91,87.527,India,IN,IND,West Bengal,,67864,1356042495
RÄjsamand,Rajsamand,25.07,73.88,India,IN,IND,RÄjasthÄn,,67798,1356835645
Bishnupur,Bishnupur,23.075,87.317,India,IN,IND,West Bengal,,67783,1356443025
ModÄsa,Modasa,23.47,73.3,India,IN,IND,GujarÄt,,67648,1356294511
Gauravaram,Gauravaram,17.1,80.6,India,IN,IND,TelangÄna,,67521,1356316929
Sausar,Sausar,21.65,78.78,India,IN,IND,Madhya Pradesh,,67459,1356174613
DhenkÄnÄl,Dhenkanal,20.67,85.6,India,IN,IND,Odisha,,67414,1356304880
Urun-IslÄmpur,Urun-Islampur,17.05,74.267,India,IN,IND,MahÄrÄshtra,,67391,1356106833
GopÄlganj,Gopalganj,26.47,84.43,India,IN,IND,BihÄr,,67339,1356098593
DhÄrÄpuram,Dharapuram,10.7314,77.5189,India,IN,IND,Tamil NÄdu,,67007,1356467104
GuruvÄyÅ«r,Guruvayur,10.5946,76.0369,India,IN,IND,Kerala,,67006,1356146032
Jagoniguda,Jagoniguda,17.32,78.52,India,IN,IND,TelangÄna,,66982,1356097157
MÄ«rpeta,Mirpeta,17.32,78.52,India,IN,IND,TelangÄna,,66982,1356216861
Phalodi,Phalodi,27.131,72.364,India,IN,IND,RÄjasthÄn,,66978,1356972193
Beypore,Beypore,11.18,75.82,India,IN,IND,Kerala,,66883,1356592326
Siddipet,Siddipet,18.1018,78.852,India,IN,IND,TelangÄna,,66737,1356671720
Koratla,Koratla,18.8215,78.7119,India,IN,IND,TelangÄna,,66504,1356581279
Hasanpur,Hasanpur,28.72,78.28,India,IN,IND,Uttar Pradesh,,66340,1356082728
SahaswÄn,Sahaswan,28.068,78.751,India,IN,IND,Uttar Pradesh,,66204,1356981844
ArÄmbÄgh,Arambagh,22.88,87.78,India,IN,IND,West Bengal,,66175,1356169521
PidugurÄlla,Piduguralla,16.4793,79.8863,India,IN,IND,Andhra Pradesh,,66167,1356026783
Puliyankudi,Puliyankudi,9.1725,77.3956,India,IN,IND,Tamil NÄdu,,66000,1356638840
Sangamner,Sangamner,19.5678,74.2115,India,IN,IND,MahÄrÄshtra,,65804,1356669414
Gohna,Gohna,29.13,76.9,India,IN,IND,HaryÄna,,65708,1356118267
Pulivendla,Pulivendla,14.4194,78.225,India,IN,IND,Andhra Pradesh,,65706,1356099701
KÄnhangÄd,Kanhangad,12.3167,75.0667,India,IN,IND,Kerala,,65499,1356114855
Jaisalmer,Jaisalmer,26.913,70.915,India,IN,IND,RÄjasthÄn,,65471,1356575402
KurabÅ«r,Kurabur,13.4,78.006,India,IN,IND,KarnÄtaka,,65456,1356492161
GiddarbÄha,Giddarbaha,30.2,74.67,India,IN,IND,Punjab,,65370,1356706088
TamlÅ«k,Tamluk,22.3,87.92,India,IN,IND,West Bengal,,65306,1356893735
Sinnar,Sinnar,19.85,74,India,IN,IND,MahÄrÄshtra,,65299,1356138889
VaijÄpur,Vaijapur,19.9267,74.7275,India,IN,IND,MahÄrÄshtra,,65296,1356386676
Jagraon,Jagraon,30.78,75.48,India,IN,IND,Punjab,,65240,1356951702
AlÄ«pur DuÄr,Alipur Duar,26.489,89.527,India,IN,IND,West Bengal,,65232,1356472105
DhÅ«ri,Dhuri,30.3685,75.8679,India,IN,IND,Punjab,,65215,1356294772
RÄth,Rath,25.58,79.57,India,IN,IND,Uttar Pradesh,,65056,1356300745
Keitumkawn,Keitumkawn,23.31,92.85,India,IN,IND,Mizoram,,64937,1356267635
Narapalli,Narapalli,17.4875,78.6012,India,IN,IND,TelangÄna,,64542,1356002369
PÄlitÄna,Palitana,21.52,71.83,India,IN,IND,GujarÄt,,64497,1356100837
Dharmapuri,Dharmapuri,12.1211,78.1582,India,IN,IND,Tamil NÄdu,,64444,1356724448
IdappÄdi,Idappadi,11.5835,77.8341,India,IN,IND,Tamil NÄdu,,64435,1356448099
HiriyÅ«r,Hiriyur,13.9446,76.6172,India,IN,IND,KarnÄtaka,,64423,1356254728
Sirsi,Sirsi,28.64,78.64,India,IN,IND,Uttar Pradesh,,64345,1356633864
KodÄd,Kodad,16.9978,79.9653,India,IN,IND,TelangÄna,,64234,1356852582
TÄdepalle,Tadepalle,16.4803,80.6186,India,IN,IND,Andhra Pradesh,,64149,1356511543
ArmÅ«r,Armur,18.79,78.29,India,IN,IND,TelangÄna,,64023,1356043277
Bankra,Bankra,22.63,88.3,India,IN,IND,West Bengal,,63957,1356096653
Nawalgarh,Nawalgarh,27.8458,75.268,India,IN,IND,RÄjasthÄn,,63948,1356085018
TohÄna,Tohana,29.7,75.9,India,IN,IND,HaryÄna,,63871,1356505021
Khagaul,Khagaul,25.579,85.0456,India,IN,IND,BihÄr,,63763,1356155902
Chakpi Karong,Chakpi Karong,24.3167,93.9833,India,IN,IND,Manipur,,63730,1356394313
SundapÄlaiyam,Sundapalaiyam,11.0014,76.8732,India,IN,IND,Tamil NÄdu,,63724,1356463067
Jatani,Jatani,20.17,85.7,India,IN,IND,Odisha,,63697,1356087327
Chik BallÄpur,Chik Ballapur,13.43,77.72,India,IN,IND,KarnÄtaka,,63652,1356871177
Athni,Athni,16.73,75.07,India,IN,IND,KarnÄtaka,,63625,1356105261
Dhuburi,Dhuburi,26.02,90,India,IN,IND,Assam,,63338,1356620816
GadwÄl,Gadwal,16.23,77.8,India,IN,IND,TelangÄna,,63177,1356741221
Visnagar,Visnagar,23.7,72.55,India,IN,IND,GujarÄt,,63073,1356690813
PÄmÅ«ru,Pamuru,15.097,79.409,India,IN,IND,Andhra Pradesh,,63017,1356991450
Sheikhpura,Sheikhpura,25.1403,85.8508,India,IN,IND,BihÄr,,62927,1356900289
Sirsi,Sirsi,14.6194,74.8375,India,IN,IND,KarnÄtaka,,62882,1356142917
WÄshÄ«m,Washim,20.1113,77.133,India,IN,IND,MahÄrÄshtra,,62863,1356185959
NÄnpÄra,Nanpara,27.87,81.5,India,IN,IND,Uttar Pradesh,,62782,1356453583
BÄri,Bari,26.63,77.62,India,IN,IND,RÄjasthÄn,,62721,1356361109
RÄnipet,Ranipet,12.9247,79.3333,India,IN,IND,Tamil NÄdu,,62360,1356874157
Kesamudram,Kesamudram,17.6875,79.8944,India,IN,IND,TelangÄna,,62323,1356260742
Nagari,Nagari,13.3214,79.5856,India,IN,IND,Andhra Pradesh,,62253,1356993418
Sherkot,Sherkot,29.35,78.58,India,IN,IND,Uttar Pradesh,,62226,1356441053
RÄghogarh,Raghogarh,24.4442,77.1986,India,IN,IND,Madhya Pradesh,,62163,1356037142
Chidambaram,Chidambaram,11.407,79.6912,India,IN,IND,Tamil NÄdu,,62153,1356547124
NarwÄna,Narwana,29.6167,76.1117,India,IN,IND,HaryÄna,,62090,1356363650
Okha,Okha,22.4667,69.0667,India,IN,IND,GujarÄt,,62052,1356176730
Bhabhua,Bhabhua,25.05,83.62,India,IN,IND,BihÄr,,61999,1356880067
NanjangÅ«d,Nanjangud,12.12,76.68,India,IN,IND,KarnÄtaka,,61961,1356697205
Siddhapur,Siddhapur,23.9167,72.3833,India,IN,IND,GujarÄt,,61867,1356103735
JhÄrgrÄm,Jhargram,22.45,86.98,India,IN,IND,West Bengal,,61712,1356046912
RÄmanÄthapuram,Ramanathapuram,9.3639,78.8395,India,IN,IND,Tamil NÄdu,,61440,1356182496
Trikonavattam,Trikonavattam,8.9,76.65,India,IN,IND,Kerala,,61287,1356164351
Halvad,Halvad,23.02,71.18,India,IN,IND,GujarÄt,,61247,1356123243
Udamalpet,Udamalpet,10.5855,77.2513,India,IN,IND,Tamil NÄdu,,61133,1356413814
Wanparti,Wanparti,16.361,78.0627,India,IN,IND,TelangÄna,,60949,1356934970
ChÄmrÄjnagar,Chamrajnagar,11.926,76.9402,India,IN,IND,KarnÄtaka,,60810,1356007832
Kukarmunda,Kukarmunda,21.5167,74.1333,India,IN,IND,GujarÄt,,60598,1356400276
Dumraon,Dumraon,25.5526,84.1515,India,IN,IND,BihÄr,,60463,1356621212
Panruti,Panruti,11.77,79.55,India,IN,IND,Tamil NÄdu,,60323,1356830695
VelampÄlaiyam,Velampalaiyam,11.1376,77.3106,India,IN,IND,Tamil NÄdu,,60296,1356163714
TirukkoyilÅ«r,Tirukkoyilur,11.9675,79.2056,India,IN,IND,Tamil NÄdu,,60212,1356662137
RÄzampeta,Razampeta,14.1954,79.159,India,IN,IND,Andhra Pradesh,,60188,1356160843
NedumangÄd,Nedumangad,8.6033,77.0028,India,IN,IND,Kerala,,60161,1356104296
Gunupur,Gunupur,19.08,83.82,India,IN,IND,Odisha,,60000,1356531908
MehnÄjpur,Mehnajpur,25.6722,83.1181,India,IN,IND,Uttar Pradesh,,60000,1356082425
Thatri,Thatri,33.1453,75.7911,India,IN,IND,Jammu and KashmÄ«r,,59955,1356306028
ChandralapÄdu,Chandralapadu,16.715,80.2089,India,IN,IND,Andhra Pradesh,,59943,1356193821
PonnÅ«ru,Ponnuru,16.0667,80.5667,India,IN,IND,Andhra Pradesh,,59913,1356219968
Kathua,Kathua,32.3694,75.5254,India,IN,IND,Jammu and KashmÄ«r,,59866,1356105038
North Lakhimpur,North Lakhimpur,27.2414,94.1056,India,IN,IND,Assam,,59814,1356628778
Vinukonda,Vinukonda,16.05,79.75,India,IN,IND,Andhra Pradesh,,59725,1356819642
Gohadi,Gohadi,26.4328,78.442,India,IN,IND,Madhya Pradesh,,59706,1356074811
Khagaria,Khagaria,25.5022,86.4671,India,IN,IND,BihÄr,,59691,1356254291
PÄchora,Pachora,20.67,75.35,India,IN,IND,MahÄrÄshtra,,59609,1356037558
TiptÅ«r,Tiptur,13.26,76.48,India,IN,IND,KarnÄtaka,,59543,1356059008
GopichettipÄlaiyam,Gopichettipalaiyam,11.4549,77.4365,India,IN,IND,Tamil NÄdu,,59523,1356481097
ItÄnagar,Itanagar,27.1,93.62,India,IN,IND,ArunÄchal Pradesh,admin,59490,1356023817
Dhone,Dhone,15.396,77.872,India,IN,IND,Andhra Pradesh,,59272,1356669210
RÄjgarh,Rajgarh,28.64,75.38,India,IN,IND,RÄjasthÄn,,59193,1356123600
Panna,Panna,24.27,80.17,India,IN,IND,Madhya Pradesh,,59091,1356085520
ZahirÄbÄd,Zahirabad,17.6814,77.6074,India,IN,IND,TelangÄna,,58857,1356771040
Wani,Wani,20.0556,78.9533,India,IN,IND,MahÄrÄshtra,,58840,1356212376
BinnÄguri,Binnaguri,26.7641,89.0558,India,IN,IND,West Bengal,,58840,1356498752
Upleta,Upleta,21.73,70.28,India,IN,IND,GujarÄt,,58775,1356920234
Narasapur,Narasapur,16.4361,81.7016,India,IN,IND,Andhra Pradesh,,58770,1356412895
Sonabedha,Sonabedha,18.73,82.83,India,IN,IND,Odisha,,58647,1356061023
PipariÄ,Piparia,22.757,78.355,India,IN,IND,Madhya Pradesh,,58578,1356825857
Una,Una,20.82,71.03,India,IN,IND,GujarÄt,,58528,1356734476
Sardhana,Sardhana,29.145,77.61,India,IN,IND,Uttar Pradesh,,58490,1356727750
HastinÄpur,Hastinapur,29.17,78.02,India,IN,IND,Uttar Pradesh,,58452,1356877930
SandÄ«la,Sandila,27.08,80.52,India,IN,IND,Uttar Pradesh,,58346,1356996737
TiruvÄlÅ«r,Tiruvalur,10.773,79.637,India,IN,IND,Tamil NÄdu,,58301,1356119061
Sillod,Sillod,20.3,75.65,India,IN,IND,MahÄrÄshtra,,58230,1356127258
MulbÄgal,Mulbagal,13.1635,78.3935,India,IN,IND,KarnÄtaka,,58123,1356535403
HunsÅ«r,Hunsur,12.3036,76.2927,India,IN,IND,KarnÄtaka,,57948,1356412744
PÄnskura,Panskura,22.417,87.7,India,IN,IND,West Bengal,,57932,1356744342
NanjakkÄd,Nanjakkad,9.2069,76.6319,India,IN,IND,Kerala,,57931,1356160771
RÄmpur Hat,Rampur Hat,24.17,87.78,India,IN,IND,West Bengal,,57833,1356074159
KhandÄla,Khandala,18.7481,73.4072,India,IN,IND,MahÄrÄshtra,,57698,1356889561
LonÄvale,Lonavale,18.7481,73.4072,India,IN,IND,MahÄrÄshtra,,57698,1356087772
Bilimora,Bilimora,20.75,72.95,India,IN,IND,GujarÄt,,57583,1356597388
KothÄpet,Kothapet,19.3333,79.4833,India,IN,IND,TelangÄna,,57583,1356072921
Maduraivayal,Maduraivayal,13.0631,80.1719,India,IN,IND,Tamil NÄdu,,57563,1356036953
SÄ«ra,Sira,13.745,76.909,India,IN,IND,KarnÄtaka,,57554,1356563968
PalÄsa,Palasa,18.7731,84.4078,India,IN,IND,Andhra Pradesh,,57507,1356231347
Chintalapalli,Chintalapalli,18.331,79.674,India,IN,IND,TelangÄna,,57434,1356038074
LohÄrdagÄ,Lohardaga,23.4331,84.6799,India,IN,IND,JhÄrkhand,,57411,1356815700
MÄcherla,Macherla,16.48,79.43,India,IN,IND,Andhra Pradesh,,57290,1356348515
BÄ«mgal,Bimgal,18.7,78.4667,India,IN,IND,TelangÄna,,57262,1356278004
KandukÅ«r,Kandukur,15.2167,79.9042,India,IN,IND,Andhra Pradesh,,57246,1356179414
Keonjhargarh,Keonjhargarh,21.63,85.58,India,IN,IND,Odisha,,57232,1356695582
KollegÄl,Kollegal,12.1539,77.101,India,IN,IND,KarnÄtaka,,57149,1356246344
Unjha,Unjha,23.8,72.4,India,IN,IND,GujarÄt,,57108,1356738663
Bail-Hongal,Bail-Hongal,15.8137,74.8589,India,IN,IND,KarnÄtaka,,57057,1356104757
Lunglei,Lunglei,22.88,92.73,India,IN,IND,Mizoram,,57011,1356318741
NasÄ«rabÄd,Nasirabad,26.3,74.73,India,IN,IND,RÄjasthÄn,,56980,1356888183
GÅ«dalur,Gudalur,11.5014,76.4916,India,IN,IND,Tamil NÄdu,,56886,1356995125
SÄmalkot,Samalkot,17.0531,82.1695,India,IN,IND,Andhra Pradesh,,56864,1356044530
KarÄ«mganj,Karimganj,24.87,92.35,India,IN,IND,Assam,,56854,1356078103
Bobbili,Bobbili,18.5667,83.3667,India,IN,IND,Andhra Pradesh,,56819,1356820046
KÄlna,Kalna,23.22,88.37,India,IN,IND,West Bengal,,56722,1356051768
Sattenapalle,Sattenapalle,16.3962,80.1497,India,IN,IND,Andhra Pradesh,,56721,1356153330
VrindÄvan,Vrindavan,27.58,77.7,India,IN,IND,Uttar Pradesh,,56618,1356168243
Diglipur,Diglipur,13.2667,93,India,IN,IND,Andaman and Nicobar Islands,,56597,1356537734
Naugaon SÄdÄt,Naugaon Sadat,28.9833,78.4167,India,IN,IND,Uttar Pradesh,,56493,1356577967
Sendhwa,Sendhwa,21.6847,75.0953,India,IN,IND,Madhya Pradesh,,56485,1356657449
Talegaon DÄbhÄde,Talegaon Dabhade,18.72,73.68,India,IN,IND,MahÄrÄshtra,,56435,1356444873
Poonamallee,Poonamallee,13.0465,80.11,India,IN,IND,Tamil NÄdu,,56237,1356180476
GangÄrÄmpur,Gangarampur,25.4,88.52,India,IN,IND,West Bengal,,56217,1356994707
TiruvallÅ«r,Tiruvallur,13.1231,79.912,India,IN,IND,Tamil NÄdu,,56074,1356625145
Mandapeta,Mandapeta,16.87,81.93,India,IN,IND,Andhra Pradesh,,56063,1356648879
Tirur,Tirur,10.9,75.92,India,IN,IND,Kerala,,56058,1356646583
PithorÄgarh,Pithoragarh,29.58,80.22,India,IN,IND,UttarÄkhand,,56044,1356198469
Kengri,Kengri,12.9122,77.4827,India,IN,IND,KarnÄtaka,,56040,1356059285
Ropar,Ropar,30.9664,76.5331,India,IN,IND,Punjab,,56000,1356959681
Ajodhya,Ajodhya,26.7992,82.2044,India,IN,IND,Uttar Pradesh,,55890,1356623948
Belampalli,Belampalli,19.0756,79.4881,India,IN,IND,TelangÄna,,55841,1356972240
Kharar,Kharar,30.74,76.65,India,IN,IND,Punjab,,55821,1356563444
ViramgÄm,Viramgam,23.12,72.03,India,IN,IND,GujarÄt,,55821,1356782098
BiswÄn,Biswan,27.5,81,India,IN,IND,Uttar Pradesh,,55780,1356917084
Kannamangalam,Kannamangalam,10.05,77.05,India,IN,IND,Kerala,,55738,1356160247
Atchampeta,Atchampeta,15.5412,78.9503,India,IN,IND,Andhra Pradesh,,55722,1356275253
KÄndi,Kandi,23.95,88.03,India,IN,IND,West Bengal,,55632,1356979141
Raxaul,Raxaul,26.9833,84.85,India,IN,IND,BihÄr,,55537,1356205939
BarwÄni,Barwani,22.03,74.9,India,IN,IND,Madhya Pradesh,,55504,1356935870
Erumaippatti,Erumaippatti,11.58,77.85,India,IN,IND,Tamil NÄdu,,55385,1356169533
Harpanahalli,Harpanahalli,14.7877,75.9886,India,IN,IND,KarnÄtaka,,55317,1356150852
Periya SemÅ«r,Periya Semur,11.37,77.6908,India,IN,IND,Tamil NÄdu,,55282,1356169558
Madhupur,Madhupur,24.26,86.65,India,IN,IND,JhÄrkhand,,55238,1356044128
ChÄlil,Chalil,11.7519,75.5959,India,IN,IND,Kerala,,55216,1356286910
Challakere,Challakere,14.312,76.651,India,IN,IND,KarnÄtaka,,55194,1356147299
PuthiyangÄdi,Puthiyangadi,12.0189,75.2588,India,IN,IND,Puducherry,,55149,1356955342
NÄmakkal,Namakkal,11.2167,78.1667,India,IN,IND,Tamil NÄdu,,55145,1356002991
MÄngrol,Mangrol,21.12,70.12,India,IN,IND,GujarÄt,,55094,1356213913
Chonthrhu,Chonthrhu,32.4865,75.9941,India,IN,IND,HimÄchal Pradesh,,55083,1356595926
BhÄ«munipatnam,Bhimunipatnam,17.8846,83.4393,India,IN,IND,Andhra Pradesh,,55082,1356889289
FÄlÄkÄta,Falakata,26.53,89.2,India,IN,IND,West Bengal,,55039,1356059125
PolÅ«r,Polur,12.5119,79.1258,India,IN,IND,Tamil NÄdu,,55000,1356267180
BhongÄ«r,Bhongir,17.51,78.89,India,IN,IND,TelangÄna,,55000,1356326602
TÄsgaon,Tasgaon,17.03,74.6,India,IN,IND,MahÄrÄshtra,,55000,1356421633
NÄndod,Nandod,21.8706,73.5028,India,IN,IND,GujarÄt,,54923,1356800561
PithÄpuram,Pithapuram,17.1167,82.2667,India,IN,IND,Andhra Pradesh,,54859,1356440541
Khurai,Khurai,24.0437,78.3301,India,IN,IND,Madhya Pradesh,,54794,1356021522
PunganÅ«ru,Punganuru,13.3667,78.5833,India,IN,IND,Andhra Pradesh,,54746,1356796945
GhÄtÄl,Ghatal,22.67,87.72,India,IN,IND,West Bengal,,54591,1356435927
SÄgar,Sagar,14.1667,75.0333,India,IN,IND,KarnÄtaka,,54550,1356424629
MÅ«ndka,Mundka,28.6794,77.0284,India,IN,IND,Delhi,,54541,1356773697
IslÄmpur,Islampur,26.27,88.2,India,IN,IND,West Bengal,,54340,1356028148
Sidhi,Sidhi,24.42,81.88,India,IN,IND,Madhya Pradesh,,54331,1356440000
RÄhuri,Rahuri,19.38,74.65,India,IN,IND,MahÄrÄshtra,,54325,1356541503
KÄsaragod,Kasaragod,12.5,75,India,IN,IND,Kerala,,54172,1356423448
PuttÅ«r,Puttur,13.45,79.55,India,IN,IND,Andhra Pradesh,,54092,1356396930
Jalor,Jalor,25.35,72.62,India,IN,IND,RÄjasthÄn,,54081,1356488284
SamÄna,Samana,30.15,76.19,India,IN,IND,Punjab,,54072,1356972840
Kunnamkulam,Kunnamkulam,10.65,76.08,India,IN,IND,Kerala,,54071,1356769956
Palmaner,Palmaner,13.2,78.75,India,IN,IND,Andhra Pradesh,,54035,1356813856
DeolÄli,Deolali,19.951,73.834,India,IN,IND,MahÄrÄshtra,,54027,1356029407
Umred,Umred,20.85,79.33,India,IN,IND,MahÄrÄshtra,,53971,1356332003
Sohna,Sohna,28.25,77.07,India,IN,IND,HaryÄna,,53962,1356866942
PÄrvatipuram,Parvatipuram,18.78,83.425,India,IN,IND,Andhra Pradesh,,53844,1356791674
MansÄla,Mansala,15.9417,77.4281,India,IN,IND,Andhra Pradesh,,53819,1356670969
UllÄl,Ullal,12.7584,74.8752,India,IN,IND,KarnÄtaka,,53808,1356227509
Dholka,Dholka,22.72,72.47,India,IN,IND,GujarÄt,,53792,1356709185
OttappÄlam,Ottappalam,10.77,76.38,India,IN,IND,Kerala,,53790,1356181054
Manjeri,Manjeri,11.1202,76.12,India,IN,IND,Kerala,,53650,1356408570
Ashta,Ashta,23.0175,76.7221,India,IN,IND,Madhya Pradesh,,53628,1356002731
Ilindu Kothi,Ilindu Kothi,32.1461,76.2784,India,IN,IND,HimÄchal Pradesh,,53543,1356856952
KÄliyÄganj,Kaliyaganj,25.63,88.32,India,IN,IND,West Bengal,,53530,1356116477
Jaggayyapeta,Jaggayyapeta,16.892,80.0976,India,IN,IND,Andhra Pradesh,,53530,1356537421
GoÄlpÄra,Goalpara,26.17,90.62,India,IN,IND,Assam,,53430,1356089059
ShÄhpur,Shahpur,16.7,76.83,India,IN,IND,KarnÄtaka,,53366,1356480887
AmalÄpuram,Amalapuram,16.5787,82.0061,India,IN,IND,Andhra Pradesh,,53231,1356997622
BakhtiyÄrpur,Bakhtiyarpur,25.459,85.539,India,IN,IND,BihÄr,,53223,1356003710
Arsikere,Arsikere,13.3139,76.2369,India,IN,IND,KarnÄtaka,,53216,1356006431
Patancheruvu,Patancheruvu,17.5333,78.2645,India,IN,IND,TelangÄna,,53160,1356686498
VikÄrÄbÄd,Vikarabad,17.33,77.9,India,IN,IND,TelangÄna,,53143,1356904767
BÄruipur,Baruipur,22.3654,88.4325,India,IN,IND,West Bengal,,53128,1356275520
PuttÅ«r,Puttur,12.7648,75.1842,India,IN,IND,KarnÄtaka,,53061,1356466163
Manglaur,Manglaur,29.8,77.87,India,IN,IND,UttarÄkhand,,52971,1356014281
Tilhar,Tilhar,27.9628,79.7383,India,IN,IND,Uttar Pradesh,,52909,1356864780
SultÄnganj,Sultanganj,25.246,86.738,India,IN,IND,BihÄr,,52892,1356568049
Tiruvalla,Tiruvalla,9.3856,76.5756,India,IN,IND,Kerala,,52883,1356161410
Mandi DabwÄli,Mandi Dabwali,29.9477,74.7322,India,IN,IND,Punjab,,52873,1356069601
Venkatagiri,Venkatagiri,13.9667,79.5833,India,IN,IND,Andhra Pradesh,,52688,1356644043
Sihor,Sihor,21.7,71.97,India,IN,IND,GujarÄt,,52603,1356675162
Nerkunram,Nerkunram,13.0619,80.2094,India,IN,IND,Tamil NÄdu,,52570,1356858169
BadÅ«ria,Baduria,22.74,88.79,India,IN,IND,West Bengal,,52493,1356034082
Sironj,Sironj,24.1031,77.6905,India,IN,IND,Madhya Pradesh,,52460,1356323821
Jangaon,Jangaon,17.7227,79.1518,India,IN,IND,TelangÄna,,52394,1356403400
Daudnagar,Daudnagar,25.03,84.4,India,IN,IND,BihÄr,,52364,1356738424
Jiyyammavalasa,Jiyyammavalasa,18.8186,83.5797,India,IN,IND,Andhra Pradesh,,52360,1356361410
MandamÄri,Mandamari,18.9822,79.4811,India,IN,IND,TelangÄna,,52352,1356193430
Lakhminia,Lakhminia,25.4126,86.3253,India,IN,IND,BihÄr,,52328,1356101691
KorÄput,Koraput,18.812,82.7105,India,IN,IND,Odisha,,52203,1356742628
Mudhol,Mudhol,16.35,75.2833,India,IN,IND,KarnÄtaka,,52199,1356197896
Phaltan,Phaltan,17.98,74.43,India,IN,IND,MahÄrÄshtra,,52118,1356097873
Diu,Diu,20.7158,70.9858,India,IN,IND,DÄdra and Nagar Haveli and DamÄn and Diu,,52074,1356923516
Todupulai,Todupulai,9.8972,76.7139,India,IN,IND,Kerala,,52045,1356886530
Khattan,Khattan,33.3773,75.7254,India,IN,IND,Jammu and KashmÄ«r,,51991,1356522570
VaisampÄkkal,Vaisampakkal,9.4562,76.5241,India,IN,IND,Kerala,,51960,1356160724
Kumarankari,Kumarankari,9.4596,76.4986,India,IN,IND,Kerala,,51960,1356160637
Arwal,Arwal,25.2442,84.6631,India,IN,IND,BihÄr,,51849,1356697722
Burla,Burla,21.5098,83.8726,India,IN,IND,Odisha,,51749,1356301513
GÄdarwÄra,Gadarwara,22.9235,78.7849,India,IN,IND,Madhya Pradesh,,51736,1356199910
KÄlpi,Kalpi,26.12,79.73,India,IN,IND,Uttar Pradesh,,51670,1356999222
IrinjÄlakuda,Irinjalakuda,10.3424,76.2112,India,IN,IND,Kerala,,51585,1356196702
Tirupparangunram,Tirupparangunram,9.8815,78.0731,India,IN,IND,Tamil NÄdu,,51543,1356018714
ZangÄreddigÅ«dem,Zangareddigudem,17.1229,81.2953,India,IN,IND,Andhra Pradesh,,51507,1356877137
PeranÄmpattu,Peranampattu,12.9387,78.7028,India,IN,IND,Tamil NÄdu,,51271,1356208271
Rongat,Rongat,12.4667,92.9333,India,IN,IND,Andaman and Nicobar Islands,,51247,1356004057
Dabhoi,Dabhoi,22.1376,73.4162,India,IN,IND,GujarÄt,,51240,1356266503
BhavÄni,Bhavani,11.4455,77.6821,India,IN,IND,Tamil NÄdu,,51186,1356666227
PuthuppariyÄram,Puthuppariyaram,10.8036,76.6221,India,IN,IND,Kerala,,51185,1356160476
Sidlaghatta,Sidlaghatta,13.39,77.86,India,IN,IND,KarnÄtaka,,51159,1356672381
Marpalli,Marpalli,17.5389,77.7708,India,IN,IND,TelangÄna,,51090,1356470150
Bowringpet,Bowringpet,12.9912,78.178,India,IN,IND,KarnÄtaka,,51087,1356617296
AurangÄbÄd,Aurangabad,27.894,77.369,India,IN,IND,HaryÄna,,51050,1356561673
Hodal,Hodal,27.894,77.369,India,IN,IND,HaryÄna,,51050,1356607451
Fatwa,Fatwa,25.5096,85.305,India,IN,IND,BihÄr,,51047,1356835845
PardwÄl,Pardwal,32.3286,76.1153,India,IN,IND,HimÄchal Pradesh,,50920,1356125796
Metpalli,Metpalli,18.8492,78.6262,India,IN,IND,TelangÄna,,50902,1356583037
Repalle,Repalle,16.0172,80.8294,India,IN,IND,Andhra Pradesh,,50866,1356083696
Kuchaiburi,Kuchaiburi,22.27,86.17,India,IN,IND,Odisha,,50798,1356785102
VyÄra,Vyara,21.12,73.4,India,IN,IND,GujarÄt,,50789,1356850056
SibsÄgar,Sibsagar,26.98,94.63,India,IN,IND,Assam,,50781,1356506584
MahmudÄbÄd,Mahmudabad,27.3,81.12,India,IN,IND,Uttar Pradesh,,50777,1356107149
Bikramganj,Bikramganj,25.2107,84.2551,India,IN,IND,BihÄr,,50698,1356504956
ChinnamanÅ«r,Chinnamanur,9.8422,77.3857,India,IN,IND,Tamil NÄdu,,50635,1356280366
Ä€naiyÅ«r,Anaiyur,9.9615,78.1118,India,IN,IND,Tamil NÄdu,,50569,1356235431
Kosamba,Kosamba,21.48,72.95,India,IN,IND,GujarÄt,,50568,1356115362
Jaspur,Jaspur,29.2833,78.8167,India,IN,IND,UttarÄkhand,,50523,1356100934
Forbesganj,Forbesganj,26.3,87.265,India,IN,IND,BihÄr,,50475,1356077404
Laksar,Laksar,29.749,78.024,India,IN,IND,UttarÄkhand,,50450,1356563386
Bar Bigha,Bar Bigha,25.2186,85.7332,India,IN,IND,BihÄr,,50424,1356047864
TÅ«ndla,Tundla,27.2146,78.2368,India,IN,IND,Uttar Pradesh,,50423,1356798262
BÄghpat,Baghpat,28.95,77.22,India,IN,IND,Uttar Pradesh,,50310,1356272989
BhawÄnÄ«pur RÄjdhÄm,Bhawanipur Rajdham,25.6501,87.1396,India,IN,IND,BihÄr,,50234,1356738539
BhadrÄchalam,Bhadrachalam,17.6688,80.8936,India,IN,IND,TelangÄna,,50087,1356456973
Biaora,Biaora,23.9163,76.9112,India,IN,IND,Madhya Pradesh,,50061,1356147862
Sojat,Sojat,25.92,73.67,India,IN,IND,RÄjasthÄn,,50061,1356521444
Tammampatti,Tammampatti,11.4381,78.4836,India,IN,IND,Tamil NÄdu,,50000,1356881648
SujÄnpur,Sujanpur,32.3127,75.6012,India,IN,IND,Punjab,,50000,1356488985
Shiv,Shiv,26.1831,71.25,India,IN,IND,RÄjasthÄn,,50000,1356291966
Bhattu KolÄn,Bhattu Kolan,29.3872,75.3422,India,IN,IND,HaryÄna,,50000,1356976973
SihorÄ,Sihora,23.4871,80.104,India,IN,IND,Madhya Pradesh,,49988,1356579413
ChatrÄ,Chatra,24.2064,84.8708,India,IN,IND,JhÄrkhand,,49985,1356105725
ParÄsia,Parasia,22.1913,78.759,India,IN,IND,Madhya Pradesh,,49979,1356420197
Hilsa,Hilsa,25.32,85.28,India,IN,IND,BihÄr,,49863,1356503158
Nohar,Nohar,29.18,74.77,India,IN,IND,RÄjasthÄn,,49835,1356119870
Bhainsa,Bhainsa,19.1,77.9667,India,IN,IND,TelangÄna,,49764,1356798697
Perintalmanna,Perintalmanna,10.9765,76.2269,India,IN,IND,Kerala,,49723,1356811920
Padrauna,Padrauna,26.9042,83.9808,India,IN,IND,Uttar Pradesh,,49723,1356332075
PerambalÅ«r,Perambalur,11.23,78.88,India,IN,IND,Tamil NÄdu,,49648,1356684065
Kizhake ChÄlakudi,Kizhake Chalakudi,10.3,76.33,India,IN,IND,Kerala,,49525,1356982203
Sulleru,Sulleru,18.5333,83.2167,India,IN,IND,Andhra Pradesh,,49500,1356399027
PeddÄpuram,Peddapuram,17.08,82.13,India,IN,IND,Andhra Pradesh,,49477,1356924364
Payyoli,Payyoli,11.5333,75.6667,India,IN,IND,Kerala,,49470,1356134337
MÄjalgaon,Majalgaon,19.15,76.2333,India,IN,IND,MahÄrÄshtra,,49453,1356596085
PrattipÄdu,Prattipadu,16.1878,80.3392,India,IN,IND,Andhra Pradesh,,49390,1356837402
Kapadvanj,Kapadvanj,23.02,73.07,India,IN,IND,GujarÄt,,49308,1356950077
Tennala,Tennala,11,75.9333,India,IN,IND,Kerala,,49214,1356288264
RÄmnagar,Ramnagar,25.28,83.03,India,IN,IND,Uttar Pradesh,,49142,1356053460
Naugachhia,Naugachhia,25.4,87.1,India,IN,IND,BihÄr,,49069,1356566210
NizÄmpur,Nizampur,21.1117,74.33,India,IN,IND,MahÄrÄshtra,,49004,1356047238
JaggisettigÅ«dem,Jaggisettigudem,17.1167,81.3,India,IN,IND,Andhra Pradesh,,48994,1356368347
Godda,Godda,24.827,87.2125,India,IN,IND,JhÄrkhand,,48850,1356975722
BÄdurpalle,Badurpalle,17.5468,78.365,India,IN,IND,TelangÄna,,48835,1356883509
Koduvalli,Koduvalli,11.3594,75.9111,India,IN,IND,Kerala,,48678,1356744281
Guntakal Junction,Guntakal Junction,15.1711,77.3624,India,IN,IND,Andhra Pradesh,,48658,1356011161
Gooty,Gooty,15.121,77.634,India,IN,IND,Andhra Pradesh,,48658,1356133077
BantvÄl,Bantval,12.8905,75.0349,India,IN,IND,KarnÄtaka,,48615,1356472512
KÄ«lvishÄram,Kilvisharam,12.9143,79.2854,India,IN,IND,Tamil NÄdu,,48519,1356082976
KhairÄbÄd,Khairabad,27.53,80.75,India,IN,IND,Uttar Pradesh,,48490,1356065763
Jasdan,Jasdan,22.03,71.2,India,IN,IND,GujarÄt,,48483,1356284058
Upperu,Upperu,16.6427,77.4874,India,IN,IND,TelangÄna,,48473,1356924393
MangalapÄdi,Mangalapadi,12.6431,74.9194,India,IN,IND,Kerala,,48441,1356025082
Vite,Vite,17.2711,74.5378,India,IN,IND,MahÄrÄshtra,,48289,1356006065
HomnÄbÄd,Homnabad,17.7707,77.1252,India,IN,IND,KarnÄtaka,,48202,1356768839
JoshÄ«math,Joshimath,30.555,79.565,India,IN,IND,UttarÄkhand,,48202,1356268711
Gumia,Gumia,23.8106,85.8232,India,IN,IND,JhÄrkhand,,48141,1356019122
BokÄro,Bokaro,23.7871,85.9564,India,IN,IND,JhÄrkhand,,48086,1356531281
NÄngal Township,Nangal Township,31.385,76.375,India,IN,IND,Punjab,,48000,1356311138
SadÄseopet,Sadaseopet,17.6203,77.9539,India,IN,IND,TelangÄna,,47960,1356040284
Hoskote,Hoskote,13.0721,77.7892,India,IN,IND,KarnÄtaka,,47946,1356676321
Jalandhar Cantonment,Jalandhar Cantonment,31.286,75.615,India,IN,IND,Punjab,,47845,1356104211
Bhatkal,Bhatkal,13.9853,74.5553,India,IN,IND,KarnÄtaka,,47748,1356324455
DÅ«ngarpur,Dungarpur,23.84,73.72,India,IN,IND,RÄjasthÄn,,47706,1356350758
ChandrÄwÄda,Chandrawada,21.6525,69.6746,India,IN,IND,GujarÄt,,47699,1356767879
Dumka,Dumka,24.42,87.34,India,IN,IND,JhÄrkhand,,47584,1356153239
ChanganÄcheri,Changanacheri,9.4667,76.55,India,IN,IND,Kerala,,47485,1356848735
Umarkhed,Umarkhed,19.6014,77.6888,India,IN,IND,MahÄrÄshtra,,47458,1356164903
Atarra,Atarra,25.28,80.57,India,IN,IND,Uttar Pradesh,,47419,1356292876
AzhikkÅd,Azhikkod,11.9076,75.3446,India,IN,IND,Kerala,,47323,1356066384
Azhikkal,Azhikkal,11.9076,75.3446,India,IN,IND,Kerala,,47323,1356663082
Vikramasingapuram,Vikramasingapuram,8.67,77.33,India,IN,IND,Tamil NÄdu,,47241,1356054066
JiÄganj,Jiaganj,24.23,88.27,India,IN,IND,West Bengal,,47228,1356818151
ManappÄrai,Manapparai,10.6075,78.4253,India,IN,IND,Tamil NÄdu,,47216,1356338778
MattanÅ«r,Mattanur,11.931,75.572,India,IN,IND,Kerala,,47078,1356016342
Hagaribommanahalli,Hagaribommanahalli,15.04,76.2,India,IN,IND,KarnÄtaka,,47042,1356395805
PallipÄlaiyam,Pallipalaiyam,11.3679,77.7435,India,IN,IND,Tamil NÄdu,,47038,1356169579
NandikotkÅ«r,Nandikotkur,15.867,78.267,India,IN,IND,Andhra Pradesh,,46953,1356046899
Selu,Selu,19.4551,76.4372,India,IN,IND,MahÄrÄshtra,,46915,1356131508
MÄ“la GÅ«dalÅ«r,Mela Gudalur,9.6806,77.2462,India,IN,IND,Tamil NÄdu,,46900,1356715167
PunalÅ«r,Punalur,9.017,76.926,India,IN,IND,Kerala,,46702,1356688710
Kampli,Kampli,15.4063,76.6001,India,IN,IND,KarnÄtaka,,46701,1356155899
Nellikkuppam,Nellikkuppam,11.7667,79.6833,India,IN,IND,Tamil NÄdu,,46679,1356710287
Padra,Padra,22.23,73.08,India,IN,IND,GujarÄt,,46660,1356528617
Obra,Obra,24.42,82.98,India,IN,IND,Uttar Pradesh,,46574,1356100800
Aland,Aland,17.5642,76.5685,India,IN,IND,KarnÄtaka,,46523,1356608267
VuyyÅ«ru,Vuyyuru,16.3667,80.85,India,IN,IND,Andhra Pradesh,,46490,1356510065
Kadinamkulam,Kadinamkulam,8.6,76.8167,India,IN,IND,Kerala,,46476,1356162518
MÄnvi,Manvi,15.9833,77.05,India,IN,IND,KarnÄtaka,,46465,1356314428
NilambÅ«r,Nilambur,11.2769,76.2258,India,IN,IND,Kerala,,46366,1356722613
BhÄlki,Bhalki,18.0435,77.206,India,IN,IND,KarnÄtaka,,46322,1356429834
Anandpur,Anandpur,21.2141,86.1249,India,IN,IND,Odisha,,46263,1356018392
Jammalamadugu,Jammalamadugu,14.85,78.38,India,IN,IND,Andhra Pradesh,,46069,1356030028
Garhwa,Garhwa,24.16,83.8075,India,IN,IND,JhÄrkhand,,46059,1356464330
Sikandra Rao,Sikandra Rao,27.7,78.4,India,IN,IND,Uttar Pradesh,,46038,1356029003
NawÄshahr,Nawashahr,31.1167,76.1333,India,IN,IND,Punjab,,46023,1356582611
RÄnÄvÄv,Ranavav,21.68,69.75,India,IN,IND,GujarÄt,,46018,1356228797
BihÄt,Bihat,25.4253,86.0208,India,IN,IND,BihÄr,,46012,1356815038
Coonoor,Coonoor,11.345,76.795,India,IN,IND,Tamil NÄdu,,45954,1356833070
ThoubÄl,Thoubal,24.63,94.02,India,IN,IND,Manipur,,45947,1356830949
Dharmaragar,Dharmaragar,24.3785,92.1783,India,IN,IND,Tripura,,45887,1356861084
PÄkaur,Pakaur,24.63,87.85,India,IN,IND,JhÄrkhand,,45840,1356035089
Shertallai,Shertallai,9.6869,76.3361,India,IN,IND,Kerala,,45827,1356986621
Nawai,Nawai,26.3824,75.924,India,IN,IND,RÄjasthÄn,,45787,1356336915
Gollalagunta,Gollalagunta,17.1672,82.2847,India,IN,IND,Andhra Pradesh,,45768,1356024704
RÄjgarh,Rajgarh,24.03,76.88,India,IN,IND,Madhya Pradesh,,45726,1356819197
Farrukhnagar,Farrukhnagar,17.0778,78.2011,India,IN,IND,TelangÄna,,45675,1356373389
Chattamangalam,Chattamangalam,11.296,75.915,India,IN,IND,Kerala,,45628,1356230310
Kumta,Kumta,14.4264,74.4122,India,IN,IND,KarnÄtaka,,45538,1356514231
Warud,Warud,21.4167,78.4,India,IN,IND,MahÄrÄshtra,,45482,1356146392
Ganapathivattam,Ganapathivattam,11.67,76.28,India,IN,IND,Kerala,,45417,1356875394
GobÄrdÄnga,Gobardanga,22.87,88.76,India,IN,IND,West Bengal,,45377,1356963190
ChalungalpÄdam,Chalungalpadam,9.549,76.3237,India,IN,IND,Kerala,,45102,1356162984
ArantÄngi,Arantangi,10.1686,78.992,India,IN,IND,Tamil NÄdu,,45056,1356529940
NÄyudupet,Nayudupet,13.9,79.9,India,IN,IND,Andhra Pradesh,,45055,1356576109
Sundargarh,Sundargarh,22.12,84.03,India,IN,IND,Odisha,,45036,1356122746
MahÄlingpur,Mahalingpur,16.38,75.12,India,IN,IND,KarnÄtaka,,45000,1356541199
BhÄyala,Bhayala,22.8335,72.3643,India,IN,IND,GujarÄt,,45000,1356126184
Nalegaon,Nalegaon,18.4167,76.8167,India,IN,IND,MahÄrÄshtra,,45000,1356973813
MuddebihÄl,Muddebihal,16.33,76.13,India,IN,IND,KarnÄtaka,,45000,1356094712
Kedgaon,Kedgaon,18.43,74.35,India,IN,IND,MahÄrÄshtra,,45000,1356779261
SachÄ«n,Sachin,21.08,72.88,India,IN,IND,GujarÄt,,45000,1356607032
Ä€lamÅ«ru,Alamuru,16.7833,81.9,India,IN,IND,Andhra Pradesh,,45000,1356170039
DÄ«g,Dig,27.47,77.33,India,IN,IND,RÄjasthÄn,,44999,1356670212
Barnagar,Barnagar,23.0489,75.378,India,IN,IND,Madhya Pradesh,,44996,1356118388
Charkhi DÄdri,Charkhi Dadri,28.59,76.27,India,IN,IND,HaryÄna,,44892,1356411988
Guledagudda,Guledagudda,16.0502,75.79,India,IN,IND,KarnÄtaka,,44868,1356735858
RÄmeswaram,Rameswaram,9.288,79.313,India,IN,IND,Tamil NÄdu,,44856,1356465756
MelÅ«r,Melur,10.0313,78.3381,India,IN,IND,Tamil NÄdu,,44722,1356060351
DhupgÄri,Dhupgari,26.5889,89.0069,India,IN,IND,West Bengal,,44719,1356217672
Dowlaiswaram,Dowlaiswaram,16.9556,81.7931,India,IN,IND,Andhra Pradesh,,44637,1356803824
Sainthia,Sainthia,23.9451,87.6803,India,IN,IND,West Bengal,,44601,1356561407
Jangamguda,Jangamguda,17.6238,78.6251,India,IN,IND,TelangÄna,,44562,1356005015
Shekhupur,Shekhupur,28.35,79.02,India,IN,IND,Uttar Pradesh,,44475,1356692392
Ellenabad,Ellenabad,29.45,74.65,India,IN,IND,HaryÄna,,44452,1356057911
KarvÄrakundu,Karvarakundu,11.1167,76.3333,India,IN,IND,Kerala,,44434,1356096530
RÄpÅ«r,Rapur,14.2015,79.5351,India,IN,IND,Andhra Pradesh,,44424,1356388256
SiyÄna,Siyana,28.6269,78.0607,India,IN,IND,Uttar Pradesh,,44415,1356843565
Angul,Angul,20.8381,85.0956,India,IN,IND,Odisha,,44390,1356441869
RÄjaldesar,Rajaldesar,28.03,74.47,India,IN,IND,RÄjasthÄn,,44385,1356850348
Dalli RÄjhara,Dalli Rajhara,20.58,81.08,India,IN,IND,ChhattÄ«sgarh,,44363,1356542563
NandigÄma,Nandigama,16.7833,80.3,India,IN,IND,Andhra Pradesh,,44359,1356012566
BarwÄh,Barwah,22.2539,76.0385,India,IN,IND,Madhya Pradesh,,44297,1356059503
Medak,Medak,18.046,78.263,India,IN,IND,TelangÄna,,44255,1356054282
Talipparamba,Talipparamba,12.0368,75.3601,India,IN,IND,Kerala,,44247,1356781430
Jora,Jora,26.3421,77.8092,India,IN,IND,Madhya Pradesh,,44235,1356211132
Ananipalle,Ananipalle,13.4902,79.2895,India,IN,IND,Andhra Pradesh,,44219,1356390426
Majurwa,Majurwa,26.1036,86.9193,India,IN,IND,BihÄr,,44214,1356897478
Raisen,Raisen,23.33,77.8,India,IN,IND,Madhya Pradesh,,44162,1356132089
JÄnakammapeta,Janakammapeta,15.0125,79.8439,India,IN,IND,Andhra Pradesh,,44059,1356032942
Sihora,Sihora,23,80.12,India,IN,IND,Madhya Pradesh,,44048,1356044182
MurshidÄbÄd,Murshidabad,24.18,88.27,India,IN,IND,West Bengal,,44019,1356366405
Ahmadpur,Ahmadpur,18.7,76.9333,India,IN,IND,MahÄrÄshtra,,44000,1356151690
SeohÄra,Seohara,29.22,78.58,India,IN,IND,Uttar Pradesh,,43985,1356800742
WÄnkÄner,Wankaner,22.6161,70.9531,India,IN,IND,GujarÄt,,43881,1356694528
Addanki,Addanki,15.8167,79.9833,India,IN,IND,Andhra Pradesh,,43850,1356837121
Nidadavole,Nidadavole,16.92,81.67,India,IN,IND,Andhra Pradesh,,43809,1356862958
Anekal,Anekal,12.7105,77.6967,India,IN,IND,KarnÄtaka,,43767,1356802211
Kottangara,Kottangara,8.9167,76.6333,India,IN,IND,Kerala,,43732,1356163740
Porsa,Porsa,26.67,78.37,India,IN,IND,Madhya Pradesh,,43695,1356503653
BodupÄl,Bodupal,17.4139,78.5783,India,IN,IND,TelangÄna,,43692,1356074103
RÄmachandrapuram,Ramachandrapuram,16.85,82.02,India,IN,IND,Andhra Pradesh,,43657,1356290874
Chembra,Chembra,11.042,75.911,India,IN,IND,Kerala,,43632,1356089705
ShÅranÅ«r,Shoranur,10.77,76.28,India,IN,IND,Kerala,,43533,1356075746
Nilothi,Nilothi,28.8167,76.8667,India,IN,IND,HaryÄna,,43371,1356727665
Jambusar,Jambusar,22.05,72.8,India,IN,IND,GujarÄt,,43344,1356963400
KÅttÅppÄdam,Kottoppadam,10.9979,76.3914,India,IN,IND,Kerala,,43283,1356352710
AmbÄsamudram,Ambasamudram,8.7037,77.4527,India,IN,IND,Tamil NÄdu,,43215,1356103053
Yeola,Yeola,20.042,74.489,India,IN,IND,MahÄrÄshtra,,43205,1356655107
KÄyalpattanam,Kayalpattanam,8.5638,78.1246,India,IN,IND,Tamil NÄdu,,43116,1356546663
Rudauli,Rudauli,26.75,81.75,India,IN,IND,Uttar Pradesh,,43091,1356247478
DhÄka,Dhaka,26.72,85.33,India,IN,IND,BihÄr,,43074,1356006454
Barhiya,Barhiya,25.2833,86.0333,India,IN,IND,BihÄr,,43032,1356881084
KattivÄkkam,Kattivakkam,13.2167,80.3167,India,IN,IND,Tamil NÄdu,,43018,1356595058
Saoner,Saoner,21.3858,78.9201,India,IN,IND,MahÄrÄshtra,,43000,1356237945
Periyakulam,Periyakulam,10.1239,77.5475,India,IN,IND,Tamil NÄdu,,42976,1356498668
BairÄgnia,Bairagnia,26.7381,85.2736,India,IN,IND,BihÄr,,42895,1356258895
PirthÄ«pur,Pirthipur,25.1853,78.665,India,IN,IND,Madhya Pradesh,,42883,1356426276
MahbÅ«bÄbÄd,Mahbubabad,17.6167,80.0167,India,IN,IND,TelangÄna,,42851,1356014527
Limbdi,Limbdi,22.5685,71.7949,India,IN,IND,GujarÄt,,42769,1356357949
Thol,Thol,23.0674,72.5121,India,IN,IND,GujarÄt,,42699,1356681416
Barpeta,Barpeta,26.32,91,India,IN,IND,Assam,,42649,1356659123
Kharik,Kharik,25.3679,87.0026,India,IN,IND,BihÄr,,42638,1356788245
SÄlÄr,Salar,23.7748,88.1026,India,IN,IND,West Bengal,,42594,1356546647
JÄjpur,Jajpur,21.214,86.107,India,IN,IND,Odisha,,42555,1356107882
AllÅ«ru,Alluru,15.1336,78.4975,India,IN,IND,Andhra Pradesh,,42545,1356074737
Kadalur,Kadalur,11.1333,75.8167,India,IN,IND,Kerala,,42516,1356058623
Jambughoda,Jambughoda,22.3667,73.7167,India,IN,IND,GujarÄt,,42476,1356054890
KÄrsiyÄng,Karsiyang,26.8778,88.2772,India,IN,IND,West Bengal,,42446,1356532333
Bhatpalli,Bhatpalli,18.4293,79.8635,India,IN,IND,TelangÄna,,42387,1356737115
ThÄn,Than,22.5667,71.1833,India,IN,IND,GujarÄt,,42351,1356711533
LaungowÄl,Laungowal,30.2167,75.6833,India,IN,IND,Punjab,,42346,1356675083
Akbarpur,Akbarpur,26.4333,82.5403,India,IN,IND,Uttar Pradesh,,42248,1356710855
Palladam,Palladam,10.99,77.2,India,IN,IND,Tamil NÄdu,,42225,1356233434
KÄrmegh,Karmegh,26.5307,86.4263,India,IN,IND,BihÄr,,42203,1356646949
Anakaputtur,Anakaputtur,12.9823,80.1282,India,IN,IND,Tamil NÄdu,,42131,1356301119
DildÄrnagar,Dildarnagar,25.4309,83.6665,India,IN,IND,Uttar Pradesh,,42121,1356868786
KÄlol,Kalol,22.606,73.463,India,IN,IND,GujarÄt,,42100,1356923566
PratÄpgarh,Pratapgarh,24.03,74.78,India,IN,IND,RÄjasthÄn,,42079,1356078917
NÄthdwÄra,Nathdwara,24.93,73.82,India,IN,IND,RÄjasthÄn,,42016,1356606458
MuttayyÄpuram,Muttayyapuram,8.7498,78.1311,India,IN,IND,Tamil NÄdu,,41993,1356214142
NÄikankudi,Naikankudi,9.843,77.1519,India,IN,IND,Kerala,,41980,1356231114
Barauli,Barauli,26.3815,84.5872,India,IN,IND,BihÄr,,41877,1356793711
Diamond Harbour,Diamond Harbour,22.191,88.1905,India,IN,IND,West Bengal,,41802,1356247896
SÅ«rampatti,Surampatti,11.3411,77.6956,India,IN,IND,Tamil NÄdu,,41782,1356169572
NÄrÄyanpet,Narayanpet,16.7445,77.496,India,IN,IND,TelangÄna,,41752,1356282239
Saidpur Dabra,Saidpur Dabra,25.3207,87.1793,India,IN,IND,BihÄr,,41734,1356771686
BerubÄri,Berubari,26.3603,88.7152,India,IN,IND,West Bengal,,41593,1356337976
RÄjgÄ«r,Rajgir,25.03,85.42,India,IN,IND,BihÄr,,41587,1356823690
Indi,Indi,17.1773,75.9526,India,IN,IND,KarnÄtaka,,41556,1356047992
Rajaori,Rajaori,33.3767,74.3122,India,IN,IND,Jammu and KashmÄ«r,,41552,1356109150
NalhÄti,Nalhati,24.294,87.839,India,IN,IND,West Bengal,,41534,1356705146
SÄnand,Sanand,22.98,72.38,India,IN,IND,GujarÄt,,41530,1356038288
KodÄ«nar,Kodinar,20.86,70.8,India,IN,IND,GujarÄt,,41492,1356105422
Sagauli,Sagauli,26.7639,84.7434,India,IN,IND,BihÄr,,41490,1356836241
GolÄghÄt,Golaghat,26.52,93.97,India,IN,IND,Assam,,41489,1356013906
PÄ«leru,Pileru,13.6549,78.9471,India,IN,IND,Andhra Pradesh,,41489,1356034538
MemÄri,Memari,23.2,88.12,India,IN,IND,West Bengal,,41451,1356560015
KendrÄparha,Kendraparha,20.5,86.42,India,IN,IND,Odisha,,41404,1356476101
Naini Tal,Naini Tal,29.3919,79.4542,India,IN,IND,UttarÄkhand,,41377,1356070793
RÄmganj Mandi,Ramganj Mandi,24.6472,75.9444,India,IN,IND,RÄjasthÄn,,41328,1356742923
Jayamkondacholapuram,Jayamkondacholapuram,11.2127,79.3637,India,IN,IND,Tamil NÄdu,,41273,1356333547
CherupulasshÄ“ri,Cherupulassheri,10.8793,76.3148,India,IN,IND,Kerala,,41267,1356632601
TrikarpÅ«r North,Trikarpur North,12.1439,75.1789,India,IN,IND,Kerala,,41201,1356094546
Shutayil,Shutayil,12.1439,75.1789,India,IN,IND,Kerala,,41201,1356626164
Agar,Agar,23.7118,76.0157,India,IN,IND,Madhya Pradesh,,41193,1356322371
Peddapalli,Peddapalli,18.6162,79.3832,India,IN,IND,TelangÄna,,41171,1356814846
BilÄsipÄra,Bilasipara,26.2328,90.2341,India,IN,IND,Assam,,41145,1356018787
